location_id,latitude,longitude,flood_severity,population_density,avg_income,predominant_household_type,demand_hygiene,demand_clothing,demand_food,nearest_dist_point_id,dist_point_latitude,dist_point_longitude,distance_to_point_km,point_capacity_hygiene,point_capacity_clothing,point_capacity_food,accessibility_score
LOC_6468c348,-23.69153404828119,-46.549257371205776,2,931.52,1977.28,Casal,5,3,4,DP_e82396bc,-23.654765833563626,-46.547771504507246,4.08,2,7,8,6
LOC_4f4394b0,-23.577695730961175,-46.51430459248011,3,1253.15,2118.22,Casal,6,4,6,DP_d8b2af58,-23.60816697866152,-46.539444179453824,4.24,7,4,3,5
LOC_64a95ec7,-23.613025200219084,-46.71795501784888,2,1927.12,1954.28,Família com Crianças,2,3,5,DP_105d35a6,-23.603584515220458,-46.70223643187409,1.91,8,9,4,8
LOC_c043922c,-23.652102661216055,-46.760923261562546,1,927.66,500.0,Família com Crianças,3,1,2,DP_3fa9402c,-23.643582018815305,-46.79543261504149,3.63,7,5,6,8
LOC_ebb29c2a,-23.562420855530345,-46.73986787079987,3,4130.17,1286.86,Adulto Sozinho,7,4,1,DP_3995de33,-23.57631254942576,-46.74539001789135,1.64,8,2,7,7
LOC_f9c6a936,-23.569600389697236,-46.64172198163624,2,1521.01,2116.44,Adulto Sozinho,3,6,1,DP_a00fb47c,-23.562621931093844,-46.63620259607727,0.96,4,10,2,7
LOC_b7bd7ac5,-23.55720838032412,-46.678729519986014,4,408.57,2977.93,Família com Crianças,6,10,8,DP_5af9beb7,-23.54347991050569,-46.675420925446126,1.56,9,8,9,4
LOC_36c15c6b,-23.579850737511304,-46.685418654413006,2,1980.73,3007.19,Família com Crianças,1,7,2,DP_2292002c,-23.580491623989225,-46.69087774938304,0.56,8,1,6,8
LOC_d61c6e59,-23.414499351994056,-46.55154958068858,3,1811.87,3739.54,Casal,6,9,6,DP_f1441d18,-23.41135547459535,-46.51544828235832,3.69,7,1,9,5
LOC_837764eb,-23.570713351567154,-46.7221714224004,2,304.81,2366.83,Família com Crianças,9,5,4,DP_3995de33,-23.57631254942576,-46.74539001789135,2.44,8,2,7,7
LOC_c99ca3c0,-23.514767071509176,-46.59525437526134,2,1231.46,3169.49,Adulto Sozinho,2,2,4,DP_016f9fd0,-23.497880501976127,-46.591292407219186,1.92,3,6,1,10
LOC_dc2dba89,-23.546265315134313,-46.660904505216145,1,1148.16,1634.92,Idosos,1,1,1,DP_d3e22f02,-23.55225828470366,-46.653110209687966,1.04,4,6,5,10
LOC_52c198aa,-23.53402294438373,-46.720991258625496,1,2259.51,692.2,Família com Crianças,2,4,1,DP_eeaf801e,-23.531213276674276,-46.71786423760367,0.45,7,3,5,10
LOC_357f000c,-23.680837388022447,-46.5575256077348,2,715.44,1890.02,Idosos,2,2,1,DP_e82396bc,-23.654765833563626,-46.547771504507246,3.06,2,7,8,7
LOC_b0001ee4,-23.56094700470006,-46.53707304468988,4,999.53,8272.36,Casal,10,10,3,DP_d8734910,-23.547536481487874,-46.56496540563815,3.2,4,8,6,3
LOC_3e84c98e,-23.413853157794623,-46.66193090311967,4,594.96,2543.87,Casal,5,5,4,DP_f793fdd2,-23.431616529114766,-46.66263748164485,1.97,6,7,7,5
LOC_37dcbc48,-23.565436563181013,-46.71389605054937,3,850.69,1620.63,Adulto Sozinho,4,8,1,DP_2292002c,-23.580491623989225,-46.69087774938304,2.88,8,1,6,5
LOC_995cb5f6,-23.444461250824247,-46.51680638706816,4,843.87,1853.71,Casal,8,7,9,DP_f1441d18,-23.41135547459535,-46.51544828235832,3.68,7,1,9,3
LOC_ae60a143,-23.598814744652316,-46.53181447123757,3,1077.29,4853.73,Idosos,5,4,8,DP_d8b2af58,-23.60816697866152,-46.539444179453824,1.3,7,4,3,8
LOC_ef36c5a5,-23.447220940817047,-46.546705406265076,4,1686.43,2939.83,Família com Crianças,10,8,8,DP_add8a21a,-23.445722312961912,-46.579277303118424,3.32,3,6,10,1
LOC_dc7bc7ce,-23.689382634085497,-46.77185074084777,1,1596.8,2237.97,Idosos,2,1,3,DP_3fa9402c,-23.643582018815305,-46.79543261504149,5.62,7,5,6,7
LOC_846940fc,-23.43228613016955,-46.607447242700744,4,626.01,3727.36,Família com Crianças,7,9,7,DP_9d82889e,-23.412487099186073,-46.61579868604996,2.36,9,2,8,4
LOC_7b8ba788,-23.555067859559575,-46.55606202468979,3,429.38,1990.5,Família com Crianças,3,8,8,DP_d8734910,-23.547536481487874,-46.56496540563815,1.23,4,8,6,6
LOC_619f8b04,-23.41416856912057,-46.51702052699891,4,853.46,2305.21,Família com Crianças,10,10,9,DP_f1441d18,-23.41135547459535,-46.51544828235832,0.35,7,1,9,5
LOC_87d4207c,-23.491066773904777,-46.63099340612719,4,367.96,5028.9,Família com Crianças,7,10,5,DP_2797e0bd,-23.51956257185729,-46.63257593664645,3.17,2,4,3,4
LOC_5a5bf660,-23.647972389834433,-46.76339848708552,1,4383.6,984.76,Família com Crianças,2,3,7,DP_3fa9402c,-23.643582018815305,-46.79543261504149,3.29,7,5,6,8
LOC_d607a46c,-23.51377066118723,-46.691624829638144,3,262.95,1309.22,Família com Crianças,5,10,4,DP_b94f8228,-23.501066491511626,-46.685593555369756,1.54,1,5,9,6
LOC_7f6d33d8,-23.696240808178597,-46.58698075384382,3,838.29,3690.48,Família com Crianças,7,7,6,DP_3b1ed2d1,-23.692287237134426,-46.599988112303,1.39,2,7,3,5
LOC_a1e5d203,-23.51229614298335,-46.513808821514075,4,1559.86,5968.58,Casal,7,6,6,DP_bf7dae2b,-23.511500995954705,-46.5273576580429,1.38,1,10,9,4
LOC_143e2c50,-23.540112502624982,-46.7244854639074,3,223.97,1114.25,Família com Crianças,6,8,1,DP_eeaf801e,-23.531213276674276,-46.71786423760367,1.2,7,3,5,4
LOC_7ae90390,-23.452048765299374,-46.63194904315828,3,424.02,500.0,Família com Crianças,4,7,8,DP_95a74d50,-23.452744487818617,-46.638285576622025,0.65,3,3,8,5
LOC_727157ca,-23.655723222471373,-46.55337164847142,3,578.62,763.92,Casal,6,2,5,DP_e82396bc,-23.654765833563626,-46.547771504507246,0.58,2,7,8,8
LOC_abf2c6f9,-23.619036504989847,-46.70969082612736,1,1758.94,500.0,Família com Crianças,3,6,5,DP_92787c0a,-23.63476440130138,-46.71492660975597,1.83,3,10,2,9
LOC_6c24cb4c,-23.535202026483365,-46.612060514315175,3,577.98,2184.98,Família com Crianças,4,6,5,DP_b3c55870,-23.55728139621098,-46.61054198441712,2.46,4,2,5,5
LOC_a14bd028,-23.519388565058044,-46.6316758057471,3,971.56,638.84,Família com Crianças,5,9,6,DP_2797e0bd,-23.51956257185729,-46.63257593664645,0.09,2,4,3,7
LOC_c7cbc7c0,-23.599480749620195,-46.715265696542744,3,1417.63,855.72,Casal,1,6,4,DP_105d35a6,-23.603584515220458,-46.70223643187409,1.4,8,9,4,6
LOC_fa619786,-23.510506398695604,-46.66703710866621,4,396.31,9104.66,Família com Crianças,8,6,7,DP_b94f8228,-23.501066491511626,-46.685593555369756,2.16,1,5,9,6
LOC_4b1777e2,-23.59128199682976,-46.744827534372334,1,220.54,763.03,Família com Crianças,3,1,2,DP_3995de33,-23.57631254942576,-46.74539001789135,1.66,8,2,7,7
LOC_2ad6e7fc,-23.565148238932927,-46.766679575157404,2,243.31,500.0,Idosos,1,3,6,DP_343959a8,-23.582683765439054,-46.76817242326442,1.95,3,9,2,9
LOC_f45c67ac,-23.671799330918265,-46.70918780648481,2,1454.18,6687.17,Casal,3,1,3,DP_92787c0a,-23.63476440130138,-46.71492660975597,4.15,3,10,2,5
LOC_c1e64982,-23.589598346317967,-46.689513182486515,3,1189.52,2298.17,Idosos,5,8,8,DP_2292002c,-23.580491623989225,-46.69087774938304,1.02,8,1,6,6
LOC_b705ae65,-23.657865493048476,-46.71011101129917,2,932.92,3006.52,Adulto Sozinho,4,5,4,DP_92787c0a,-23.63476440130138,-46.71492660975597,2.61,3,10,2,5
LOC_ffd50dfa,-23.495207169781256,-46.61993845977379,2,1203.45,2286.77,Adulto Sozinho,6,1,8,DP_016f9fd0,-23.497880501976127,-46.591292407219186,2.93,3,6,1,3
LOC_ae0075d5,-23.68940979824811,-46.799894593969505,3,378.2,6236.93,Família com Crianças,5,5,8,DP_3fa9402c,-23.643582018815305,-46.79543261504149,5.11,7,5,6,2
LOC_084355ab,-23.536993738765037,-46.59615995245822,2,1370.67,2453.25,Casal,3,3,1,DP_ea4ff28e,-23.539984614076108,-46.58729301667153,0.96,10,7,5,8
LOC_48699e7a,-23.495967773227548,-46.717787696105766,3,195.78,4042.11,Casal,5,7,4,DP_0ebff7ba,-23.483499439277384,-46.71833794171456,1.39,10,7,8,8
LOC_6b52cb21,-23.51422313790989,-46.55074775189344,4,1479.16,3783.62,Família com Crianças,6,6,7,DP_bf7dae2b,-23.511500995954705,-46.5273576580429,2.4,1,10,9,5
LOC_bf029e92,-23.561785561409128,-46.65447625764846,2,2704.51,3722.44,Casal,1,6,6,DP_d3e22f02,-23.55225828470366,-46.653110209687966,1.07,4,6,5,8
LOC_48dad1e9,-23.657892256427154,-46.640656516625555,2,1101.86,500.0,Família com Crianças,4,6,3,DP_00670d2b,-23.64530423036534,-46.632571571084796,1.62,1,9,1,9
LOC_1ebba64d,-23.581388988126985,-46.78253662914426,2,1135.34,573.01,Família com Crianças,3,5,7,DP_343959a8,-23.582683765439054,-46.76817242326442,1.47,3,9,2,6
LOC_de56fc1c,-23.409662665996457,-46.64816808958502,3,360.31,788.9,Casal,5,7,6,DP_f793fdd2,-23.431616529114766,-46.66263748164485,2.85,6,7,7,7
LOC_efc9e8df,-23.43879885006361,-46.50814779630865,4,811.95,5810.79,Adulto Sozinho,7,8,7,DP_f1441d18,-23.41135547459535,-46.51544828235832,3.14,7,1,9,3
LOC_b0f50a47,-23.482713611939893,-46.54562177824069,3,463.04,2722.69,Idosos,7,1,6,DP_1e5bc3a8,-23.47862762750177,-46.54295633645559,0.53,8,6,4,7
LOC_efd6718b,-23.6958744220261,-46.650817538865425,2,754.2,855.78,Família com Crianças,4,4,5,DP_9fb30649,-23.683465897524272,-46.60587669044847,4.77,2,4,2,5
LOC_596e9127,-23.6911493903394,-46.788424204432026,1,1447.0,3565.99,Família com Crianças,4,4,3,DP_3fa9402c,-23.643582018815305,-46.79543261504149,5.33,7,5,6,7
LOC_9531b288,-23.575435936434747,-46.73808861850887,2,487.66,500.0,Família com Crianças,5,6,8,DP_3995de33,-23.57631254942576,-46.74539001789135,0.75,8,2,7,6
LOC_6f6ad3f7,-23.519052119786767,-46.78368191710919,2,3542.88,1262.32,Casal,4,3,7,DP_278ff609,-23.520351156484153,-46.78442654717463,0.16,2,4,1,9
LOC_aac588db,-23.68666812494549,-46.50170525717243,1,8608.97,1355.35,Adulto Sozinho,5,2,5,DP_e82396bc,-23.654765833563626,-46.547771504507246,5.87,2,7,8,6
LOC_b29e7254,-23.47623908046872,-46.59364452792054,4,1839.66,2450.84,Família com Crianças,5,9,10,DP_016f9fd0,-23.497880501976127,-46.591292407219186,2.41,3,6,1,4
LOC_5dc0eb60,-23.49842872398365,-46.606368634863315,4,1717.03,4922.24,Casal,7,6,5,DP_016f9fd0,-23.497880501976127,-46.591292407219186,1.54,3,6,1,5
LOC_dafc9aaa,-23.574094319653955,-46.61201277683541,2,2545.45,3334.28,Adulto Sozinho,4,7,2,DP_0fbca58c,-23.56222740269425,-46.613792866281635,1.33,3,3,7,6
LOC_5bdf1c86,-23.53245998112133,-46.655427751000495,2,1360.21,3440.33,Família com Crianças,6,8,3,DP_c3143460,-23.536034150499972,-46.66301473004276,0.87,9,1,7,8
LOC_1055bb55,-23.474853459549095,-46.73650436471428,2,4183.34,2014.12,Família com Crianças,3,4,5,DP_0ebff7ba,-23.483499439277384,-46.71833794171456,2.08,10,7,8,7
LOC_4585d216,-23.648969241589768,-46.602092586123604,3,955.93,4024.58,Idosos,5,5,5,DP_00670d2b,-23.64530423036534,-46.632571571084796,3.13,1,9,1,7
LOC_1fb29fbd,-23.539745581274417,-46.78501942680172,2,1621.49,2147.65,Família com Crianças,2,3,6,DP_278ff609,-23.520351156484153,-46.78442654717463,2.15,2,4,1,5
LOC_a00674d4,-23.548218597415413,-46.72166344276347,3,1754.6,3147.64,Adulto Sozinho,8,4,4,DP_eeaf801e,-23.531213276674276,-46.71786423760367,1.93,7,3,5,6
LOC_0fa2d31e,-23.530404321399303,-46.757890358433656,2,1411.0,2160.78,Família com Crianças,6,4,4,DP_a54904ce,-23.51353339304898,-46.74593307234313,2.23,5,2,8,9
LOC_9880fee0,-23.62008391786203,-46.763271971475255,2,483.72,3033.01,Casal,3,3,1,DP_07311449,-23.630234365078177,-46.79922003486498,3.83,1,4,9,5
LOC_f9729dfb,-23.62317369899596,-46.50878429938897,3,517.9,1332.65,Casal,4,5,5,DP_9143fac9,-23.62815516127242,-46.542894181220035,3.51,4,4,5,5
LOC_259df30f,-23.442703846513353,-46.520411651080664,4,817.54,1712.38,Adulto Sozinho,3,8,1,DP_f1441d18,-23.41135547459535,-46.51544828235832,3.52,7,1,9,4
LOC_87d86283,-23.527993238345058,-46.51750315893936,3,180.45,2020.88,Casal,4,3,3,DP_bee23920,-23.5371057126562,-46.509873617866766,1.28,8,3,10,7
LOC_d59c1438,-23.63969512009589,-46.57299221856975,2,3591.79,500.0,Casal,5,4,1,DP_10a1b32b,-23.62839796787828,-46.56361465380137,1.58,2,7,1,8
LOC_9248a265,-23.572390756172613,-46.625337188081396,2,1817.55,937.42,Adulto Sozinho,4,1,2,DP_a00fb47c,-23.562621931093844,-46.63620259607727,1.55,4,10,2,10
LOC_9f11e33b,-23.51507470409203,-46.66287165961668,3,1761.94,1621.48,Adulto Sozinho,5,5,3,DP_c3143460,-23.536034150499972,-46.66301473004276,2.33,9,1,7,6
LOC_b083b7ae,-23.601035118540956,-46.50712988363362,4,2708.23,5385.77,Adulto Sozinho,6,6,8,DP_d8b2af58,-23.60816697866152,-46.539444179453824,3.38,7,4,3,3
LOC_9cd0a421,-23.56579430856996,-46.77995899456186,2,366.65,500.0,Família com Crianças,1,5,1,DP_343959a8,-23.582683765439054,-46.76817242326442,2.23,3,9,2,8
LOC_39d7f227,-23.69644181256393,-46.60903781392027,2,399.61,921.55,Família com Crianças,4,5,3,DP_3b1ed2d1,-23.692287237134426,-46.599988112303,1.03,2,7,3,6
LOC_9bc84670,-23.658567279613983,-46.698586169695716,1,882.85,1550.92,Família com Crianças,5,6,1,DP_92787c0a,-23.63476440130138,-46.71492660975597,3.12,3,10,2,6
LOC_c236f9d1,-23.543133393489377,-46.74141160997335,2,1246.0,2549.27,Família com Crianças,2,5,4,DP_eeaf801e,-23.531213276674276,-46.71786423760367,2.74,7,3,5,9
LOC_4b0776d8,-23.6534942051957,-46.596790640165665,3,1178.11,629.08,Idosos,6,4,7,DP_9fb30649,-23.683465897524272,-46.60587669044847,3.45,2,4,2,3
LOC_3077277b,-23.431637530768935,-46.70207706697079,2,1303.02,967.7,Família com Crianças,5,8,4,DP_3a71bf58,-23.43519692543406,-46.70158743862493,0.4,7,7,10,7
LOC_ada58d7a,-23.50782819295702,-46.785591162918536,3,550.51,2248.69,Família com Crianças,8,10,2,DP_278ff609,-23.520351156484153,-46.78442654717463,1.4,2,4,1,4
LOC_f0490098,-23.49622815238212,-46.53137388423416,3,430.52,3363.2,Casal,6,4,5,DP_c17028c9,-23.490063501878993,-46.544020802933176,1.46,3,5,6,8
LOC_c9bdd4e9,-23.603624337060307,-46.769900249679864,2,661.42,4820.05,Família com Crianças,3,6,8,DP_343959a8,-23.582683765439054,-46.76817242326442,2.33,3,9,2,3
LOC_181a56ef,-23.443626625046253,-46.714259918133266,3,1041.9,4724.01,Adulto Sozinho,7,5,7,DP_3a71bf58,-23.43519692543406,-46.70158743862493,1.59,7,7,10,4
LOC_44d474bf,-23.567765012912528,-46.73373434434832,4,1241.38,3356.84,Família com Crianças,6,10,7,DP_3995de33,-23.57631254942576,-46.74539001789135,1.52,8,2,7,6
LOC_28ee808b,-23.498186935794063,-46.50922378339228,1,1623.57,5250.32,Idosos,3,1,1,DP_bf7dae2b,-23.511500995954705,-46.5273576580429,2.36,1,10,9,6
LOC_2046cdeb,-23.610053776213476,-46.79381977389254,1,560.02,3811.37,Adulto Sozinho,2,1,2,DP_07311449,-23.630234365078177,-46.79922003486498,2.31,1,4,9,9
LOC_cc7a668b,-23.477238280161682,-46.73247230104513,4,514.75,5020.52,Família com Crianças,7,7,7,DP_0ebff7ba,-23.483499439277384,-46.71833794171456,1.6,10,7,8,6
LOC_818a7a48,-23.56384424237392,-46.6915084076475,2,2899.5,4508.65,Adulto Sozinho,4,4,3,DP_2292002c,-23.580491623989225,-46.69087774938304,1.85,8,1,6,7
LOC_345f96f3,-23.687107244279698,-46.60739933165668,3,1203.42,1687.44,Família com Crianças,4,6,6,DP_9fb30649,-23.683465897524272,-46.60587669044847,0.43,2,4,2,10
LOC_3df8415a,-23.680762048383354,-46.77501084426398,1,1399.69,1302.48,Idosos,8,5,1,DP_3fa9402c,-23.643582018815305,-46.79543261504149,4.62,7,5,6,7
LOC_d2a6f89c,-23.479004617563657,-46.60973456053987,3,3226.76,2699.26,Adulto Sozinho,6,6,2,DP_016f9fd0,-23.497880501976127,-46.591292407219186,2.81,3,6,1,7
LOC_40afbf59,-23.52451124007237,-46.592771167088294,3,1049.14,2978.31,Família com Crianças,7,2,6,DP_ea4ff28e,-23.539984614076108,-46.58729301667153,1.81,10,7,5,8
LOC_2f239570,-23.515850230572763,-46.79877539125107,1,951.05,500.0,Casal,1,1,1,DP_278ff609,-23.520351156484153,-46.78442654717463,1.54,2,4,1,9
LOC_27d0c8d2,-23.53115613093273,-46.6446166773407,3,1884.65,5554.67,Casal,5,8,4,DP_2797e0bd,-23.51956257185729,-46.63257593664645,1.78,2,4,3,5
LOC_a281406a,-23.425071722471053,-46.50461384289539,4,708.93,2412.87,Família com Crianças,6,9,10,DP_f1441d18,-23.41135547459535,-46.51544828235832,1.88,7,1,9,5
LOC_ba94eb52,-23.631443466785438,-46.633504779519406,2,458.17,6690.06,Família com Crianças,4,6,7,DP_00670d2b,-23.64530423036534,-46.632571571084796,1.54,1,9,1,8
LOC_4afc02b6,-23.500766258325832,-46.60970268791074,2,397.45,3595.94,Adulto Sozinho,5,2,4,DP_016f9fd0,-23.497880501976127,-46.591292407219186,1.9,3,6,1,7
LOC_712d7a8e,-23.692690848783062,-46.68122507060719,3,3065.74,1818.31,Adulto Sozinho,4,8,2,DP_00670d2b,-23.64530423036534,-46.632571571084796,7.22,1,9,1,2
LOC_00acf8db,-23.660556300481034,-46.56053698082801,2,1790.61,4345.2,Família com Crianças,1,7,4,DP_e82396bc,-23.654765833563626,-46.547771504507246,1.45,2,7,8,8
LOC_14c0ce30,-23.515535548170398,-46.61761622498976,4,3868.19,3747.67,Família com Crianças,7,9,8,DP_2797e0bd,-23.51956257185729,-46.63257593664645,1.59,2,4,3,7
LOC_1b21d8eb,-23.58888668147037,-46.73537908649835,2,848.14,1413.06,Idosos,5,2,1,DP_3995de33,-23.57631254942576,-46.74539001789135,1.73,8,2,7,10
LOC_597f69e8,-23.438941782435755,-46.66013369192386,3,1247.4,855.65,Casal,4,6,3,DP_f793fdd2,-23.431616529114766,-46.66263748164485,0.85,6,7,7,7
LOC_957d5520,-23.4533905093028,-46.57359265540132,4,563.12,1652.41,Família com Crianças,6,7,7,DP_add8a21a,-23.445722312961912,-46.579277303118424,1.03,3,6,10,5
LOC_fdaab768,-23.47459402127431,-46.67178471049958,3,2997.35,500.0,Família com Crianças,8,10,7,DP_e85b803d,-23.476551386484136,-46.672197503533354,0.22,9,3,4,7
LOC_a3b15e23,-23.46285005293248,-46.65941523039501,3,637.18,1917.17,Família com Crianças,5,6,4,DP_e85b803d,-23.476551386484136,-46.672197503533354,2.0,9,3,4,8
LOC_ca3faac9,-23.501761488137237,-46.727029159167614,1,833.33,500.0,Casal,1,1,3,DP_0ebff7ba,-23.483499439277384,-46.71833794171456,2.21,10,7,8,7
LOC_6fa6f5d2,-23.61989128857192,-46.566845459007894,4,656.45,1815.06,Família com Crianças,7,5,7,DP_10a1b32b,-23.62839796787828,-46.56361465380137,1.0,2,7,1,2
LOC_222d7519,-23.560720840603157,-46.56739008655986,3,2694.79,7944.81,Família com Crianças,8,9,6,DP_e3b3e572,-23.56900733739578,-46.57788991054601,1.41,9,7,9,5
LOC_88034fcf,-23.401147920602092,-46.73383137959072,3,556.86,1221.8,Casal,5,3,7,DP_3a71bf58,-23.43519692543406,-46.70158743862493,5.01,7,7,10,7
LOC_cdd13b00,-23.416607573231097,-46.650629477168955,3,907.31,2598.6,Casal,5,8,5,DP_f793fdd2,-23.431616529114766,-46.66263748164485,2.07,6,7,7,6
LOC_ba6c37ca,-23.606470603228576,-46.68922937386492,1,925.01,3725.66,Família com Crianças,2,5,6,DP_acf77492,-23.609343827131887,-46.67888248558128,1.1,2,3,7,8
LOC_d26a1d77,-23.439990155484267,-46.54141710173938,3,5508.6,2369.11,Família com Crianças,5,7,8,DP_add8a21a,-23.445722312961912,-46.579277303118424,3.91,3,6,10,4
LOC_e834bc98,-23.66520423148147,-46.56042961391183,3,1181.93,1728.62,Adulto Sozinho,6,4,7,DP_e82396bc,-23.654765833563626,-46.547771504507246,1.73,2,7,8,6
LOC_4db44d98,-23.451184332211877,-46.787267037038646,3,585.88,3386.27,Família com Crianças,3,6,7,DP_5efad43c,-23.449178349861636,-46.78862134213231,0.26,4,10,5,7
LOC_f4e439aa,-23.697299909117152,-46.792885384692894,1,1939.15,3013.1,Família com Crianças,4,7,1,DP_3fa9402c,-23.643582018815305,-46.79543261504149,5.97,7,5,6,5
LOC_a870da10,-23.503325674333038,-46.66624243767332,3,3768.51,1526.11,Família com Crianças,4,5,8,DP_b94f8228,-23.501066491511626,-46.685593555369756,1.99,1,5,9,6
LOC_b945758c,-23.53091180404146,-46.65188871651553,3,593.37,871.8,Adulto Sozinho,6,6,8,DP_c3143460,-23.536034150499972,-46.66301473004276,1.27,9,1,7,7
LOC_4a5d97e9,-23.483509068193502,-46.78255356409143,2,947.35,542.69,Casal,2,2,3,DP_803fe971,-23.482326056051757,-46.76214704832643,2.08,10,1,1,9
LOC_60b56dad,-23.406420732182134,-46.52164705131623,3,254.65,3887.33,Casal,5,5,4,DP_f1441d18,-23.41135547459535,-46.51544828235832,0.84,7,1,9,7
LOC_cdf57db6,-23.692284054607743,-46.569164307764474,1,928.4,4340.24,Idosos,1,2,2,DP_3b1ed2d1,-23.692287237134426,-46.599988112303,3.13,2,7,3,8
LOC_a03400ae,-23.478983766691382,-46.67452934838449,2,2341.67,1128.48,Família com Crianças,4,2,4,DP_e85b803d,-23.476551386484136,-46.672197503533354,0.36,9,3,4,10
LOC_6f7554c4,-23.575902595597228,-46.6096400292243,3,923.72,975.44,Família com Crianças,8,6,4,DP_a6e04c58,-23.580882963693625,-46.597846107643335,1.32,5,10,5,7
LOC_b93560c1,-23.465066897039957,-46.57564419367263,3,1733.72,3730.68,Família com Crianças,4,9,9,DP_add8a21a,-23.445722312961912,-46.579277303118424,2.18,3,6,10,6
LOC_3dc1c438,-23.509965561163096,-46.765559954749264,2,639.1,2067.64,Casal,6,1,2,DP_a54904ce,-23.51353339304898,-46.74593307234313,2.04,5,2,8,6
LOC_a7c5742c,-23.485368166961766,-46.723739817487974,2,1244.47,6414.58,Família com Crianças,5,7,4,DP_0ebff7ba,-23.483499439277384,-46.71833794171456,0.59,10,7,8,8
LOC_52d99bab,-23.66595615554488,-46.652312314873654,3,496.0,1158.39,Casal,6,5,3,DP_00670d2b,-23.64530423036534,-46.632571571084796,3.05,1,9,1,5
LOC_da97cc77,-23.45075132449774,-46.76294499509905,3,1627.85,4920.1,Idosos,7,3,4,DP_5efad43c,-23.449178349861636,-46.78862134213231,2.62,4,10,5,6
LOC_30c88808,-23.658386315611356,-46.57913824731637,3,1280.78,5356.92,Casal,6,1,4,DP_e82396bc,-23.654765833563626,-46.547771504507246,3.21,2,7,8,8
LOC_25fb5402,-23.573947964351973,-46.712618085476215,2,1293.52,676.36,Adulto Sozinho,3,3,4,DP_2292002c,-23.580491623989225,-46.69087774938304,2.33,8,1,6,7
LOC_c46f872a,-23.687443887328637,-46.51127946572421,2,365.55,5704.64,Casal,4,1,4,DP_e82396bc,-23.654765833563626,-46.547771504507246,5.19,2,7,8,6
LOC_d795d095,-23.462980853815473,-46.69906152408002,3,1412.96,5176.1,Adulto Sozinho,6,5,7,DP_0ebff7ba,-23.483499439277384,-46.71833794171456,3.01,10,7,8,5
LOC_19df8750,-23.41453456377438,-46.543056333738754,4,321.16,1326.39,Família com Crianças,7,6,4,DP_f1441d18,-23.41135547459535,-46.51544828235832,2.83,7,1,9,4
LOC_eed1a023,-23.451303685073935,-46.72044421006298,4,584.9,1396.21,Casal,9,9,6,DP_3a71bf58,-23.43519692543406,-46.70158743862493,2.62,7,7,10,5
LOC_852fe3ca,-23.579750307376415,-46.795243854191234,1,1648.54,1096.43,Adulto Sozinho,2,1,1,DP_343959a8,-23.582683765439054,-46.76817242326442,2.77,3,9,2,5
LOC_15a55178,-23.5983163022877,-46.574546110106716,2,430.56,3832.28,Família com Crianças,3,8,2,DP_a6e04c58,-23.580882963693625,-46.597846107643335,3.06,5,10,5,6
LOC_00adf813,-23.529372873398522,-46.52108656021163,4,213.43,2391.82,Idosos,7,7,7,DP_bee23920,-23.5371057126562,-46.509873617866766,1.43,8,3,10,7
LOC_d78f3257,-23.441620194327648,-46.78813990586681,2,1323.5,1771.43,Idosos,3,1,5,DP_5efad43c,-23.449178349861636,-46.78862134213231,0.84,4,10,5,8
LOC_a8cb689a,-23.679088174615853,-46.763494243321865,1,1504.89,2919.58,Família com Crianças,3,6,5,DP_3fa9402c,-23.643582018815305,-46.79543261504149,5.11,7,5,6,6
LOC_42eab934,-23.621892981987294,-46.71196683060185,3,719.23,3832.78,Família com Crianças,6,4,6,DP_92787c0a,-23.63476440130138,-46.71492660975597,1.46,3,10,2,6
LOC_c336087a,-23.670083820969456,-46.5668107025207,3,487.26,1100.66,Casal,4,6,3,DP_e82396bc,-23.654765833563626,-46.547771504507246,2.58,2,7,8,6
LOC_b155d79a,-23.68024244469013,-46.711830039023546,1,372.43,1484.58,Casal,6,1,1,DP_92787c0a,-23.63476440130138,-46.71492660975597,5.06,3,10,2,7
LOC_14c656e3,-23.438136193767097,-46.545851244379016,4,1115.83,3224.46,Família com Crianças,7,10,6,DP_add8a21a,-23.445722312961912,-46.579277303118424,3.51,3,6,10,6
LOC_43e164f4,-23.566914771520988,-46.72343688973456,3,2009.37,3474.33,Família com Crianças,9,9,4,DP_3995de33,-23.57631254942576,-46.74539001789135,2.47,8,2,7,6
LOC_d109a36d,-23.446028559479632,-46.72702571324936,3,1934.53,4548.79,Adulto Sozinho,4,5,4,DP_3a71bf58,-23.43519692543406,-46.70158743862493,2.86,7,7,10,5
LOC_938f3f62,-23.46920112426086,-46.53829553246915,2,1129.26,1934.59,Família com Crianças,5,9,4,DP_1e5bc3a8,-23.47862762750177,-46.54295633645559,1.15,8,6,4,10
LOC_8f467c34,-23.661558136804242,-46.768962634691135,1,515.76,500.0,Adulto Sozinho,3,2,3,DP_3fa9402c,-23.643582018815305,-46.79543261504149,3.35,7,5,6,5
LOC_ba1ef85f,-23.51051387849018,-46.534659060711036,3,1872.61,4468.65,Casal,7,4,5,DP_bf7dae2b,-23.511500995954705,-46.5273576580429,0.75,1,10,9,7
LOC_755924fd,-23.57221472760194,-46.7459411391864,2,1240.8,1200.16,Família com Crianças,4,3,6,DP_3995de33,-23.57631254942576,-46.74539001789135,0.46,8,2,7,9
LOC_2c47c71d,-23.633486871969662,-46.70942644207066,1,844.05,944.77,Família com Crianças,1,5,5,DP_92787c0a,-23.63476440130138,-46.71492660975597,0.58,3,10,2,9
LOC_46505382,-23.677111654471112,-46.71829466242743,2,851.94,500.0,Idosos,5,5,8,DP_92787c0a,-23.63476440130138,-46.71492660975597,4.71,3,10,2,6
LOC_0d916c2a,-23.504079847330505,-46.52009321197776,3,1003.45,4370.41,Adulto Sozinho,5,3,4,DP_bf7dae2b,-23.511500995954705,-46.5273576580429,1.11,1,10,9,7
LOC_35542bc1,-23.67194169029062,-46.67192525182552,1,1311.45,2717.58,Idosos,1,3,4,DP_00670d2b,-23.64530423036534,-46.632571571084796,4.98,1,9,1,7
LOC_91a7ff37,-23.62421137168184,-46.786869130242984,2,3123.44,1389.65,Casal,1,5,1,DP_07311449,-23.630234365078177,-46.79922003486498,1.42,1,4,9,8
LOC_8a7b5cc5,-23.553716555806034,-46.59649662050719,3,2864.82,2121.17,Família com Crianças,7,5,5,DP_681b33b5,-23.563742760790948,-46.59742241854985,1.12,10,10,9,10
LOC_1952b85b,-23.655925289491204,-46.539955704060446,3,2222.26,2022.19,Idosos,5,3,7,DP_e82396bc,-23.654765833563626,-46.547771504507246,0.81,2,7,8,8
LOC_11061b8e,-23.62207389117805,-46.58937168482002,4,806.35,607.02,Adulto Sozinho,7,8,7,DP_10a1b32b,-23.62839796787828,-46.56361465380137,2.71,2,7,1,5
LOC_6db295e7,-23.6631456695458,-46.6989329741763,2,1337.66,3285.43,Família com Crianças,3,3,7,DP_92787c0a,-23.63476440130138,-46.71492660975597,3.55,3,10,2,5
LOC_fd1e4ac5,-23.68627010071209,-46.66853186853286,1,2048.24,863.88,Casal,4,1,3,DP_00670d2b,-23.64530423036534,-46.632571571084796,5.83,1,9,1,9
LOC_7f992f4e,-23.54823644045664,-46.77858849341325,2,575.75,963.86,Adulto Sozinho,4,3,2,DP_278ff609,-23.520351156484153,-46.78442654717463,3.15,2,4,1,7
LOC_11ee33b7,-23.478609483343643,-46.73447931604816,2,1623.47,3295.46,Família com Crianças,5,7,5,DP_0ebff7ba,-23.483499439277384,-46.71833794171456,1.73,10,7,8,5
LOC_1f139817,-23.653565397864075,-46.71209284268028,1,1879.81,3677.25,Adulto Sozinho,3,1,4,DP_92787c0a,-23.63476440130138,-46.71492660975597,2.11,3,10,2,8
LOC_b5fcaea3,-23.57329094686744,-46.600448521349755,3,540.27,3405.88,Família com Crianças,3,9,5,DP_a6e04c58,-23.580882963693625,-46.597846107643335,0.88,5,10,5,9
LOC_6e5f13b1,-23.42162498867807,-46.65776790341731,4,1335.99,2289.04,Casal,8,2,7,DP_f793fdd2,-23.431616529114766,-46.66263748164485,1.21,6,7,7,7
LOC_142a572b,-23.418315367201018,-46.68114419421317,3,589.2,4595.88,Casal,5,7,1,DP_f793fdd2,-23.431616529114766,-46.66263748164485,2.39,6,7,7,7
LOC_11d92065,-23.445482226169275,-46.79838096666062,2,1954.08,4691.55,Família com Crianças,4,5,4,DP_5efad43c,-23.449178349861636,-46.78862134213231,1.08,4,10,5,6
LOC_ca4df1ee,-23.55344038495394,-46.68198720319551,3,2684.59,2215.62,Família com Crianças,8,9,5,DP_5af9beb7,-23.54347991050569,-46.675420925446126,1.29,9,8,9,8
LOC_911f131b,-23.453817550658258,-46.56948349869015,4,510.59,2675.33,Idosos,8,4,9,DP_add8a21a,-23.445722312961912,-46.579277303118424,1.34,3,6,10,9
LOC_ca702e9e,-23.577681055771816,-46.50651743405416,4,1466.63,2822.72,Casal,8,8,6,DP_bee23920,-23.5371057126562,-46.509873617866766,4.52,8,3,10,5
LOC_dc1233f2,-23.539192467730572,-46.77269675843645,4,7119.76,2075.64,Família com Crianças,7,10,10,DP_278ff609,-23.520351156484153,-46.78442654717463,2.41,2,4,1,3
LOC_b0616b63,-23.61810074175805,-46.528749071129134,4,519.43,3311.7,Família com Crianças,8,8,10,DP_d8b2af58,-23.60816697866152,-46.539444179453824,1.55,7,4,3,5
LOC_b962d0dc,-23.47402613706788,-46.78052074724571,2,4270.44,3232.56,Família com Crianças,3,6,7,DP_803fe971,-23.482326056051757,-46.76214704832643,2.09,10,1,1,5
LOC_2dcf432e,-23.637740716088036,-46.54715224949278,2,533.37,4932.93,Família com Crianças,3,5,1,DP_9143fac9,-23.62815516127242,-46.542894181220035,1.15,4,4,5,10
LOC_b0f102b3,-23.5174399037465,-46.63841982922627,3,811.42,1313.94,Adulto Sozinho,5,2,1,DP_2797e0bd,-23.51956257185729,-46.63257593664645,0.64,2,4,3,6
LOC_89f5ebc3,-23.53046953130015,-46.60720810581251,3,5058.85,2545.6,Família com Crianças,4,7,7,DP_ea4ff28e,-23.539984614076108,-46.58729301667153,2.29,10,7,5,6
LOC_0d26fc20,-23.40210966938419,-46.570357369372395,3,398.08,1152.49,Idosos,8,4,7,DP_7059a760,-23.40429089035877,-46.61114916541199,4.16,4,2,10,5
LOC_302def32,-23.5475808676891,-46.62612441236483,3,849.65,2044.28,Casal,5,2,1,DP_212e2a78,-23.559714587099716,-46.618339810731236,1.56,5,9,10,5
LOC_0bb9d435,-23.421136667731616,-46.61944737058041,3,670.04,1375.98,Família com Crianças,5,7,7,DP_9d82889e,-23.412487099186073,-46.61579868604996,1.03,9,2,8,8
LOC_5d03947b,-23.679345671740084,-46.7069892123431,4,368.21,1814.07,Família com Crianças,8,8,7,DP_92787c0a,-23.63476440130138,-46.71492660975597,5.01,3,10,2,3
LOC_935ad7de,-23.509595229937613,-46.79378418996958,2,2153.24,6741.15,Família com Crianças,5,5,7,DP_278ff609,-23.520351156484153,-46.78442654717463,1.53,2,4,1,8
LOC_39c3abb0,-23.62034637750373,-46.74327071898666,1,2149.76,500.0,Casal,1,5,3,DP_92787c0a,-23.63476440130138,-46.71492660975597,3.3,3,10,2,6
LOC_e86c0f49,-23.66678348214809,-46.72082461797973,2,680.41,3968.54,Adulto Sozinho,2,6,4,DP_92787c0a,-23.63476440130138,-46.71492660975597,3.6,3,10,2,7
LOC_7be0f206,-23.695695718399403,-46.53658809763794,2,1626.12,4509.61,Idosos,5,3,4,DP_e82396bc,-23.654765833563626,-46.547771504507246,4.68,2,7,8,8
LOC_665e5a43,-23.474810605083693,-46.613920407985546,2,1279.52,1852.85,Adulto Sozinho,2,5,4,DP_016f9fd0,-23.497880501976127,-46.591292407219186,3.44,3,6,1,6
LOC_d4e0615c,-23.568447028763398,-46.577134895933995,3,1040.12,6376.29,Casal,6,2,4,DP_e3b3e572,-23.56900733739578,-46.57788991054601,0.1,9,7,9,8
LOC_a629ce8d,-23.659303325837996,-46.65210387386544,3,2773.92,3195.33,Adulto Sozinho,4,7,3,DP_00670d2b,-23.64530423036534,-46.632571571084796,2.52,1,9,1,5
LOC_bea204d7,-23.68693938576867,-46.66507427205962,1,449.11,1248.95,Casal,3,2,7,DP_00670d2b,-23.64530423036534,-46.632571571084796,5.68,1,9,1,6
LOC_a8c749d3,-23.43355498723787,-46.71854859783155,3,2390.08,3425.6,Adulto Sozinho,5,1,1,DP_3a71bf58,-23.43519692543406,-46.70158743862493,1.74,7,7,10,8
LOC_594de9a9,-23.486341201545574,-46.68091612189009,3,1646.38,500.0,Família com Crianças,6,3,6,DP_e85b803d,-23.476551386484136,-46.672197503533354,1.4,9,3,4,9
LOC_239a12c6,-23.59564150684969,-46.752539093280916,2,790.77,500.0,Casal,4,3,8,DP_343959a8,-23.582683765439054,-46.76817242326442,2.14,3,9,2,6
LOC_63e0220c,-23.529402912173612,-46.579795669680884,4,619.24,2022.03,Família com Crianças,9,9,6,DP_ea4ff28e,-23.539984614076108,-46.58729301667153,1.4,10,7,5,6
LOC_59e3cdb6,-23.486861155935397,-46.70023485602498,4,716.57,2245.03,Família com Crianças,7,7,6,DP_0ebff7ba,-23.483499439277384,-46.71833794171456,1.88,10,7,8,7
LOC_4a643257,-23.584176885400982,-46.679037362051275,2,2280.53,500.0,Família com Crianças,6,10,2,DP_2292002c,-23.580491623989225,-46.69087774938304,1.27,8,1,6,7
LOC_bec22986,-23.65547012941991,-46.730164876859384,3,961.64,1925.16,Casal,9,6,5,DP_92787c0a,-23.63476440130138,-46.71492660975597,2.77,3,10,2,4
LOC_7f772c6f,-23.649573907391147,-46.58684175969328,1,1238.11,1886.39,Casal,3,2,1,DP_10a1b32b,-23.62839796787828,-46.56361465380137,3.33,2,7,1,8
LOC_0736752e,-23.411411203868347,-46.62276298773761,3,708.74,3982.06,Família com Crianças,5,9,6,DP_9d82889e,-23.412487099186073,-46.61579868604996,0.72,9,2,8,8
LOC_1a1e8259,-23.515350642276335,-46.51245295094047,2,927.15,1087.09,Adulto Sozinho,1,2,3,DP_bf7dae2b,-23.511500995954705,-46.5273576580429,1.58,1,10,9,8
LOC_9491c822,-23.60788226693238,-46.68839532806431,1,479.5,3498.94,Adulto Sozinho,4,1,1,DP_acf77492,-23.609343827131887,-46.67888248558128,0.98,2,3,7,9
LOC_0595a74e,-23.670571863878926,-46.639363468391984,2,1068.81,3945.31,Família com Crianças,5,4,4,DP_00670d2b,-23.64530423036534,-46.632571571084796,2.89,1,9,1,8
LOC_47681003,-23.439363091548937,-46.6906593027335,2,2299.95,2041.68,Casal,5,2,2,DP_3a71bf58,-23.43519692543406,-46.70158743862493,1.21,7,7,10,7
LOC_bd5c09f4,-23.483967316183726,-46.50541296350233,4,738.0,7108.34,Idosos,5,5,5,DP_bf7dae2b,-23.511500995954705,-46.5273576580429,3.79,1,10,9,3
LOC_75e2873b,-23.66881771765167,-46.67203863269195,3,1348.46,3251.94,Casal,4,5,5,DP_00670d2b,-23.64530423036534,-46.632571571084796,4.79,1,9,1,6
LOC_cecb8760,-23.524774793736395,-46.65736842942576,3,968.5,3874.27,Casal,6,3,5,DP_c3143460,-23.536034150499972,-46.66301473004276,1.38,9,1,7,5
LOC_5fc45f78,-23.54161955718555,-46.59978288692863,3,401.09,3280.67,Família com Crianças,7,7,3,DP_ea4ff28e,-23.539984614076108,-46.58729301667153,1.28,10,7,5,6
LOC_45d31670,-23.64014970499569,-46.72906408915244,1,934.3,1699.14,Família com Crianças,3,3,1,DP_92787c0a,-23.63476440130138,-46.71492660975597,1.56,3,10,2,8
LOC_0e1dbf7d,-23.521324077584183,-46.70532275825562,4,1330.94,9186.28,Idosos,9,7,6,DP_eeaf801e,-23.531213276674276,-46.71786423760367,1.68,7,3,5,5
LOC_7f393f27,-23.471177969729517,-46.61535454792132,2,417.35,5143.08,Adulto Sozinho,4,3,4,DP_95a74d50,-23.452744487818617,-46.638285576622025,3.1,3,3,8,6
LOC_15b25cbb,-23.50422840886463,-46.75938276552032,2,540.66,706.52,Idosos,1,2,3,DP_a54904ce,-23.51353339304898,-46.74593307234313,1.71,5,2,8,6
LOC_3064f9c8,-23.615280793455767,-46.71765944910503,1,2021.88,500.0,Família com Crianças,2,5,1,DP_105d35a6,-23.603584515220458,-46.70223643187409,2.04,8,9,4,8
LOC_732be8f2,-23.582516246112988,-46.61406815460393,2,1361.23,3301.47,Casal,4,1,1,DP_a6e04c58,-23.580882963693625,-46.597846107643335,1.66,5,10,5,7
LOC_9bd8cd77,-23.43498750122129,-46.73476661486014,2,841.69,883.18,Casal,4,2,3,DP_3a71bf58,-23.43519692543406,-46.70158743862493,3.38,7,7,10,6
LOC_64f28299,-23.4036323335563,-46.61135451898427,3,424.54,4019.1,Adulto Sozinho,6,7,4,DP_7059a760,-23.40429089035877,-46.61114916541199,0.08,4,2,10,6
LOC_eaebd72d,-23.429189950175985,-46.781069408913396,2,1539.38,2151.08,Casal,5,6,1,DP_5efad43c,-23.449178349861636,-46.78862134213231,2.35,4,10,5,7
LOC_85428cb7,-23.51803457063798,-46.57563233484791,2,1085.25,5014.81,Família com Crianças,3,5,2,DP_ea4ff28e,-23.539984614076108,-46.58729301667153,2.71,10,7,5,7
LOC_9831cf47,-23.405319345608035,-46.69963674661762,2,2716.14,500.0,Adulto Sozinho,4,4,2,DP_3a71bf58,-23.43519692543406,-46.70158743862493,3.32,7,7,10,7
LOC_c3d6b629,-23.643957459175184,-46.687618310289274,2,272.75,2160.02,Família com Crianças,2,7,5,DP_d3d78729,-23.622196965111417,-46.67848120761651,2.59,2,3,6,7
LOC_daa5ee4c,-23.54395277724279,-46.55216735722929,3,531.93,1825.62,Família com Crianças,7,7,6,DP_d8734910,-23.547536481487874,-46.56496540563815,1.36,4,8,6,6
LOC_6129cc5c,-23.501107813336194,-46.5823744600258,4,1668.93,3460.79,Família com Crianças,7,9,10,DP_016f9fd0,-23.497880501976127,-46.591292407219186,0.98,3,6,1,6
LOC_65fb1565,-23.61467177469106,-46.67865749209938,1,384.41,3025.41,Casal,3,2,1,DP_acf77492,-23.609343827131887,-46.67888248558128,0.59,2,3,7,8
LOC_557c1f6f,-23.651687866349885,-46.6580486408767,2,1583.61,500.0,Casal,5,2,4,DP_00670d2b,-23.64530423036534,-46.632571571084796,2.69,1,9,1,6
LOC_773421d7,-23.47073172549706,-46.78979902148328,2,790.12,5406.72,Adulto Sozinho,6,4,2,DP_5efad43c,-23.449178349861636,-46.78862134213231,2.4,4,10,5,5
LOC_0aaecc70,-23.43854814267753,-46.618185379096886,4,1564.59,2512.12,Adulto Sozinho,6,6,4,DP_95a74d50,-23.452744487818617,-46.638285576622025,2.58,3,3,8,6
LOC_a1632d23,-23.530596935841025,-46.6439460291605,3,441.78,1004.16,Adulto Sozinho,7,3,4,DP_2797e0bd,-23.51956257185729,-46.63257593664645,1.69,2,4,3,4
LOC_4c685663,-23.57557199031599,-46.64421644608738,4,3203.57,2129.16,Adulto Sozinho,5,5,8,DP_a00fb47c,-23.562621931093844,-46.63620259607727,1.65,4,10,2,5
LOC_7aa17ea9,-23.41807167395948,-46.75186058416785,3,2165.66,2156.68,Família com Crianças,9,7,4,DP_5efad43c,-23.449178349861636,-46.78862134213231,5.09,4,10,5,3
LOC_9186a5e4,-23.4292468074973,-46.63388435156631,4,1843.0,2326.58,Idosos,7,5,8,DP_9d82889e,-23.412487099186073,-46.61579868604996,2.62,9,2,8,7
LOC_1f22073a,-23.528393539172132,-46.70216292108755,2,1213.43,2310.65,Adulto Sozinho,6,2,4,DP_eeaf801e,-23.531213276674276,-46.71786423760367,1.63,7,3,5,5
LOC_c071fcb3,-23.6630252530146,-46.79326116995593,1,295.97,1282.79,Adulto Sozinho,3,4,4,DP_3fa9402c,-23.643582018815305,-46.79543261504149,2.17,7,5,6,7
LOC_9f4da488,-23.65825486842066,-46.77198857385409,2,722.67,592.71,Idosos,5,2,3,DP_3fa9402c,-23.643582018815305,-46.79543261504149,2.89,7,5,6,6
LOC_18c2ef42,-23.6720657098607,-46.73782373066446,2,460.73,5733.75,Família com Crianças,3,6,1,DP_92787c0a,-23.63476440130138,-46.71492660975597,4.75,3,10,2,7
LOC_3b1df4ac,-23.422266124512664,-46.65201609399699,3,795.15,4268.13,Adulto Sozinho,6,4,2,DP_f793fdd2,-23.431616529114766,-46.66263748164485,1.5,6,7,7,8
LOC_35040a78,-23.676221557670157,-46.641161968699755,2,1023.66,1948.93,Casal,6,1,8,DP_00670d2b,-23.64530423036534,-46.632571571084796,3.54,1,9,1,7
LOC_375079ba,-23.420906839077084,-46.60467202420576,4,738.61,986.94,Família com Crianças,7,8,10,DP_9d82889e,-23.412487099186073,-46.61579868604996,1.47,9,2,8,5
LOC_171e10e1,-23.544601408563004,-46.63578602691582,3,684.28,3475.68,Casal,6,6,3,DP_d3e22f02,-23.55225828470366,-46.653110209687966,1.96,4,6,5,6
LOC_475633bc,-23.60984871515864,-46.68615478638081,3,3248.68,1727.67,Casal,3,5,7,DP_acf77492,-23.609343827131887,-46.67888248558128,0.74,2,3,7,5
LOC_c5440dc1,-23.575848120383956,-46.53999891907022,3,2284.42,2452.2,Casal,4,5,6,DP_d8b2af58,-23.60816697866152,-46.539444179453824,3.59,7,4,3,5
LOC_bc980232,-23.635849773115453,-46.58885184198111,2,719.63,500.0,Família com Crianças,3,3,5,DP_10a1b32b,-23.62839796787828,-46.56361465380137,2.7,2,7,1,10
LOC_7cf72915,-23.408677977969525,-46.654959251883284,4,994.38,2444.89,Família com Crianças,4,9,4,DP_f793fdd2,-23.431616529114766,-46.66263748164485,2.66,6,7,7,5
LOC_7884e8ce,-23.43663379723031,-46.628130901358745,3,1490.34,7403.24,Família com Crianças,6,7,5,DP_95a74d50,-23.452744487818617,-46.638285576622025,2.07,3,3,8,6
LOC_717b8795,-23.574181534306877,-46.524050580901736,4,590.44,2588.83,Casal,6,4,6,DP_d8b2af58,-23.60816697866152,-46.539444179453824,4.08,7,4,3,5
LOC_d4b19e97,-23.518180807970957,-46.58591113205974,2,1789.89,1466.06,Adulto Sozinho,5,3,5,DP_016f9fd0,-23.497880501976127,-46.591292407219186,2.32,3,6,1,4
LOC_b82dd1d3,-23.480963542946697,-46.58521264712083,3,1942.09,912.47,Adulto Sozinho,5,8,3,DP_016f9fd0,-23.497880501976127,-46.591292407219186,1.98,3,6,1,6
LOC_2c986558,-23.499452073308646,-46.5402335525681,4,476.61,851.31,Família com Crianças,5,5,8,DP_c17028c9,-23.490063501878993,-46.544020802933176,1.11,3,5,6,5
LOC_61d8b85a,-23.578596508907328,-46.61530841173496,2,3601.96,2218.94,Adulto Sozinho,4,2,6,DP_a6e04c58,-23.580882963693625,-46.597846107643335,1.79,5,10,5,7
LOC_43ad2cba,-23.5200529603776,-46.689727715217636,2,616.5,7066.94,Casal,4,4,3,DP_b94f8228,-23.501066491511626,-46.685593555369756,2.15,1,5,9,8
LOC_5e7368b6,-23.544975859329167,-46.54661707457591,4,3466.13,7243.91,Casal,7,6,9,DP_d8734910,-23.547536481487874,-46.56496540563815,1.89,4,8,6,4
LOC_13762594,-23.69830865930421,-46.57443886099368,1,1018.12,830.65,Adulto Sozinho,4,1,2,DP_3b1ed2d1,-23.692287237134426,-46.599988112303,2.68,2,7,3,8
LOC_7e31fa0b,-23.50497016962993,-46.70073239978763,3,1180.31,1769.12,Adulto Sozinho,4,4,5,DP_b94f8228,-23.501066491511626,-46.685593555369756,1.6,1,5,9,8
LOC_d0a99204,-23.599776352799218,-46.76934134330166,2,621.18,5264.07,Família com Crianças,4,5,5,DP_343959a8,-23.582683765439054,-46.76817242326442,1.9,3,9,2,6
LOC_3b9304fb,-23.56056572230505,-46.5499604859574,3,1846.65,3725.13,Família com Crianças,5,5,9,DP_d8734910,-23.547536481487874,-46.56496540563815,2.1,4,8,6,9
LOC_fbad2340,-23.518250762017562,-46.71642736814831,3,3746.57,3054.04,Família com Crianças,7,7,6,DP_eeaf801e,-23.531213276674276,-46.71786423760367,1.45,7,3,5,8
LOC_8c79a41b,-23.551390377511364,-46.50819556894275,3,662.08,4688.85,Casal,8,9,4,DP_bee23920,-23.5371057126562,-46.509873617866766,1.59,8,3,10,5
LOC_6e8cbbe7,-23.501858851070356,-46.518985570045835,4,393.78,1938.96,Idosos,8,5,6,DP_bf7dae2b,-23.511500995954705,-46.5273576580429,1.37,1,10,9,5
LOC_eecae40e,-23.489374353448735,-46.54932916572777,3,631.34,4192.5,Família com Crianças,4,6,8,DP_c17028c9,-23.490063501878993,-46.544020802933176,0.55,3,5,6,4
LOC_8d0e6091,-23.556471465105265,-46.60801134375405,4,6441.57,7274.56,Adulto Sozinho,10,9,8,DP_b3c55870,-23.55728139621098,-46.61054198441712,0.27,4,2,5,9
LOC_f9c01228,-23.597555163449893,-46.740178047741125,2,1538.28,2456.87,Família com Crianças,2,4,7,DP_3995de33,-23.57631254942576,-46.74539001789135,2.42,8,2,7,6
LOC_8dac9976,-23.581776462492087,-46.68654315535236,2,3261.88,3533.04,Idosos,7,3,4,DP_2292002c,-23.580491623989225,-46.69087774938304,0.46,8,1,6,6
LOC_1424b101,-23.664819570227184,-46.742685533582524,1,2169.27,2781.51,Casal,2,2,4,DP_92787c0a,-23.63476440130138,-46.71492660975597,4.37,3,10,2,8
LOC_17d304de,-23.483602591466482,-46.7053275017911,4,669.95,3386.15,Idosos,7,7,8,DP_0ebff7ba,-23.483499439277384,-46.71833794171456,1.32,10,7,8,5
LOC_78ab74bb,-23.58488583933988,-46.652077629332496,2,1099.03,769.73,Casal,6,3,2,DP_4247720d,-23.608981039033157,-46.663362307985544,2.91,8,9,4,6
LOC_672d942f,-23.637147664244626,-46.77802773366862,1,758.15,888.92,Adulto Sozinho,3,1,1,DP_3fa9402c,-23.643582018815305,-46.79543261504149,1.91,7,5,6,5
LOC_6dc44cb2,-23.469197650520904,-46.58569544473856,4,605.63,2167.57,Família com Crianças,10,8,10,DP_add8a21a,-23.445722312961912,-46.579277303118424,2.69,3,6,10,6
LOC_2a7dcfc6,-23.49160269711431,-46.57847014464952,3,1080.2,4681.04,Adulto Sozinho,6,6,10,DP_016f9fd0,-23.497880501976127,-46.591292407219186,1.48,3,6,1,6
LOC_5519e846,-23.530427583590804,-46.68069987675156,3,302.65,2258.13,Idosos,5,6,8,DP_5af9beb7,-23.54347991050569,-46.675420925446126,1.55,9,8,9,6
LOC_8f30176e,-23.677697924843166,-46.55754148726167,2,526.55,928.95,Família com Crianças,6,4,3,DP_e82396bc,-23.654765833563626,-46.547771504507246,2.73,2,7,8,7
LOC_b879d2e3,-23.582018472452805,-46.53351601896472,2,689.11,500.0,Adulto Sozinho,5,5,6,DP_d8b2af58,-23.60816697866152,-46.539444179453824,2.96,7,4,3,8
LOC_15d06407,-23.676719647024232,-46.78741346036682,1,458.4,1190.87,Família com Crianças,2,1,4,DP_3fa9402c,-23.643582018815305,-46.79543261504149,3.77,7,5,6,6
LOC_763c3836,-23.643155069332817,-46.508080292818896,2,826.19,4789.2,Idosos,2,2,9,DP_9143fac9,-23.62815516127242,-46.542894181220035,3.91,4,4,5,4
LOC_84cc6d32,-23.69084988147421,-46.68934239922579,2,513.38,500.0,Casal,4,4,1,DP_92787c0a,-23.63476440130138,-46.71492660975597,6.75,3,10,2,6
LOC_b265ddef,-23.400146220496886,-46.54906402714538,3,1124.56,4533.55,Casal,5,2,2,DP_f1441d18,-23.41135547459535,-46.51544828235832,3.64,7,1,9,6
LOC_32152916,-23.43619098227364,-46.7240130654408,3,2235.4,2249.52,Família com Crianças,8,10,5,DP_3a71bf58,-23.43519692543406,-46.70158743862493,2.29,7,7,10,7
LOC_705458e6,-23.527780835921433,-46.6273626416165,3,1124.79,3299.87,Família com Crianças,4,9,6,DP_2797e0bd,-23.51956257185729,-46.63257593664645,1.06,2,4,3,7
LOC_28143a8c,-23.483688539177024,-46.605906105357214,4,2131.13,4528.66,Casal,7,7,5,DP_016f9fd0,-23.497880501976127,-46.591292407219186,2.17,3,6,1,3
LOC_255db968,-23.450284144376734,-46.673695340293115,4,927.88,4083.9,Adulto Sozinho,8,9,5,DP_f793fdd2,-23.431616529114766,-46.66263748164485,2.36,6,7,7,5
LOC_b027955b,-23.666607761448738,-46.50354596702295,2,589.53,2639.65,Adulto Sozinho,3,4,3,DP_e82396bc,-23.654765833563626,-46.547771504507246,4.68,2,7,8,7
LOC_a58a0581,-23.590190359438296,-46.54752703913546,3,2726.42,3882.34,Adulto Sozinho,7,2,3,DP_d8b2af58,-23.60816697866152,-46.539444179453824,2.16,7,4,3,7
LOC_ecfb8f43,-23.404399772047277,-46.591866480499135,4,353.15,1829.04,Adulto Sozinho,6,9,8,DP_7059a760,-23.40429089035877,-46.61114916541199,1.96,4,2,10,2
LOC_c90378ce,-23.652719075654343,-46.615578069573715,2,2370.21,2959.07,Adulto Sozinho,4,4,2,DP_00670d2b,-23.64530423036534,-46.632571571084796,1.91,1,9,1,9
LOC_6cbe03e0,-23.600103690150267,-46.55177836482635,3,831.82,3337.99,Família com Crianças,6,4,4,DP_d8b2af58,-23.60816697866152,-46.539444179453824,1.54,7,4,3,3
LOC_4aed8b30,-23.61646277899311,-46.63210245453192,3,1240.35,2894.86,Casal,6,6,4,DP_00670d2b,-23.64530423036534,-46.632571571084796,3.2,1,9,1,7
LOC_4630b571,-23.598778695907086,-46.74346292965442,3,715.21,500.0,Casal,5,3,3,DP_3995de33,-23.57631254942576,-46.74539001789135,2.5,8,2,7,6
LOC_48c422cf,-23.5542825516155,-46.78183517934039,2,1031.25,3763.07,Casal,4,3,3,DP_343959a8,-23.582683765439054,-46.76817242326442,3.45,3,9,2,7
LOC_0c5c83f4,-23.405357627632032,-46.71455183769826,3,1459.33,1035.67,Família com Crianças,8,3,6,DP_3a71bf58,-23.43519692543406,-46.70158743862493,3.57,7,7,10,5
LOC_ef83621a,-23.426205295508854,-46.77739446665915,2,750.51,3824.4,Casal,6,3,2,DP_5efad43c,-23.449178349861636,-46.78862134213231,2.79,4,10,5,5
LOC_7fb6fa42,-23.493431345999582,-46.63569382161247,2,2395.31,1714.91,Família com Crianças,5,6,1,DP_2797e0bd,-23.51956257185729,-46.63257593664645,2.92,2,4,3,5
LOC_e8b06fbd,-23.5464006903264,-46.63579596502533,3,1006.93,2178.15,Família com Crianças,6,10,1,DP_a00fb47c,-23.562621931093844,-46.63620259607727,1.8,4,10,2,8
LOC_1bdb65e5,-23.410721242755532,-46.54199614218615,4,7514.67,1533.84,Casal,6,7,6,DP_f1441d18,-23.41135547459535,-46.51544828235832,2.71,7,1,9,4
LOC_8e4271be,-23.4096004638619,-46.770843966472746,3,1879.15,6444.69,Família com Crianças,8,8,4,DP_5efad43c,-23.449178349861636,-46.78862134213231,4.75,4,10,5,6
LOC_019c784c,-23.504528013279508,-46.72396041613549,2,768.34,754.25,Casal,5,3,3,DP_0ebff7ba,-23.483499439277384,-46.71833794171456,2.4,10,7,8,9
LOC_ff98649e,-23.586581272981512,-46.540883706725005,3,4913.59,1437.98,Família com Crianças,6,7,4,DP_d8b2af58,-23.60816697866152,-46.539444179453824,2.4,7,4,3,6
LOC_6d2363aa,-23.656677134159377,-46.778499892453596,2,442.68,680.25,Adulto Sozinho,3,1,3,DP_3fa9402c,-23.643582018815305,-46.79543261504149,2.25,7,5,6,8
LOC_ff57ebdd,-23.445439020773478,-46.55642184928395,3,1879.83,5981.8,Família com Crianças,6,5,8,DP_add8a21a,-23.445722312961912,-46.579277303118424,2.33,3,6,10,6
LOC_bba77812,-23.514087278149375,-46.50779265846545,3,399.34,1067.69,Idosos,5,6,8,DP_bf7dae2b,-23.511500995954705,-46.5273576580429,2.01,1,10,9,5
LOC_aa305626,-23.619719958974503,-46.695335538644166,2,831.67,1610.36,Adulto Sozinho,2,3,7,DP_d3d78729,-23.622196965111417,-46.67848120761651,1.74,2,3,6,9
LOC_ba16bb53,-23.57220589960038,-46.58210707115543,2,512.43,2008.91,Família com Crianças,3,8,5,DP_e3b3e572,-23.56900733739578,-46.57788991054601,0.56,9,7,9,10
LOC_aacd0da1,-23.438246837367316,-46.68833197907403,3,416.76,6073.17,Casal,8,3,1,DP_3a71bf58,-23.43519692543406,-46.70158743862493,1.39,7,7,10,6
LOC_b837b559,-23.681112683771847,-46.50097567310468,1,1068.6,1838.1,Família com Crianças,2,2,3,DP_e82396bc,-23.654765833563626,-46.547771504507246,5.58,2,7,8,7
LOC_772d8c47,-23.42590679023994,-46.753779730156744,3,921.26,2317.67,Casal,2,8,4,DP_5efad43c,-23.449178349861636,-46.78862134213231,4.39,4,10,5,4
LOC_ebf735b2,-23.59640648782596,-46.572245772182775,3,288.15,3368.6,Família com Crianças,4,6,7,DP_e3b3e572,-23.56900733739578,-46.57788991054601,3.1,9,7,9,3
LOC_5ff98a59,-23.49481871925189,-46.79584255435477,3,1147.81,2004.13,Adulto Sozinho,5,6,5,DP_278ff609,-23.520351156484153,-46.78442654717463,3.06,2,4,1,4
LOC_e0ccc044,-23.4345472895815,-46.68911188793809,4,2385.06,5579.48,Adulto Sozinho,8,7,8,DP_3a71bf58,-23.43519692543406,-46.70158743862493,1.27,7,7,10,6
LOC_46e267d3,-23.687537960719233,-46.69042129879159,2,2835.32,4343.27,Casal,4,5,1,DP_92787c0a,-23.63476440130138,-46.71492660975597,6.37,3,10,2,5
LOC_de0b4aae,-23.689134302499706,-46.77607570665394,1,555.6,2081.72,Família com Crianças,3,1,7,DP_3fa9402c,-23.643582018815305,-46.79543261504149,5.43,7,5,6,5
LOC_14a25785,-23.5053583291514,-46.66692422057909,3,1004.27,6422.3,Família com Crianças,7,10,7,DP_b94f8228,-23.501066491511626,-46.685593555369756,1.96,1,5,9,4
LOC_89598afc,-23.45900332650558,-46.59691827165226,3,1991.03,4117.72,Família com Crianças,3,4,8,DP_add8a21a,-23.445722312961912,-46.579277303118424,2.32,3,6,10,7
LOC_76e0e24b,-23.62488033900601,-46.69628022448997,2,4497.03,959.21,Família com Crianças,5,4,2,DP_d3d78729,-23.622196965111417,-46.67848120761651,1.83,2,3,6,6
LOC_840ee49c,-23.50501513941262,-46.7605768613925,3,292.69,2059.09,Casal,6,2,7,DP_a54904ce,-23.51353339304898,-46.74593307234313,1.77,5,2,8,7
LOC_e5bbdeeb,-23.61340323890951,-46.509947989565624,3,503.11,5689.26,Casal,5,3,2,DP_d8b2af58,-23.60816697866152,-46.539444179453824,3.06,7,4,3,8
LOC_c18e7c63,-23.540878712366528,-46.7317737837639,1,323.76,1171.21,Adulto Sozinho,1,2,1,DP_eeaf801e,-23.531213276674276,-46.71786423760367,1.78,7,3,5,9
LOC_deadd1b3,-23.50320313734264,-46.66466475490444,2,484.55,500.0,Adulto Sozinho,1,5,7,DP_b94f8228,-23.501066491511626,-46.685593555369756,2.14,1,5,9,9
LOC_8acbf20c,-23.543984285406555,-46.67682471820104,3,1624.15,6268.88,Família com Crianças,4,5,9,DP_5af9beb7,-23.54347991050569,-46.675420925446126,0.15,9,8,9,6
LOC_e10dae85,-23.45357264495602,-46.60481592417698,4,1430.0,2004.57,Família com Crianças,10,8,8,DP_add8a21a,-23.445722312961912,-46.579277303118424,2.74,3,6,10,4
LOC_0b9fb3e7,-23.435445480161924,-46.741164155349445,2,1691.74,500.0,Casal,5,5,3,DP_3a71bf58,-23.43519692543406,-46.70158743862493,4.03,7,7,10,6
LOC_d68c8912,-23.42751526403402,-46.74342889844669,2,199.55,1147.98,Casal,2,3,3,DP_3a71bf58,-23.43519692543406,-46.70158743862493,4.35,7,7,10,6
LOC_559b79f7,-23.61787735643357,-46.77806933533479,2,1566.29,877.42,Casal,4,3,2,DP_07311449,-23.630234365078177,-46.79922003486498,2.55,1,4,9,6
LOC_41f47811,-23.498916160034167,-46.62080786322004,3,1259.18,941.25,Adulto Sozinho,3,4,3,DP_2797e0bd,-23.51956257185729,-46.63257593664645,2.59,2,4,3,6
LOC_d4489fae,-23.686292467382536,-46.76111365881204,1,1436.03,981.65,Família com Crianças,4,1,1,DP_3fa9402c,-23.643582018815305,-46.79543261504149,5.89,7,5,6,5
LOC_6f197b73,-23.43685173399995,-46.661514584826335,3,392.79,500.0,Adulto Sozinho,5,8,4,DP_f793fdd2,-23.431616529114766,-46.66263748164485,0.59,6,7,7,7
LOC_d4eba5a7,-23.46739839756876,-46.68897101075639,3,1606.96,2153.06,Família com Crianças,5,6,3,DP_e85b803d,-23.476551386484136,-46.672197503533354,1.99,9,3,4,6
LOC_2e23670a,-23.648483408747996,-46.73437177261485,1,533.03,2936.29,Casal,3,3,5,DP_92787c0a,-23.63476440130138,-46.71492660975597,2.5,3,10,2,9
LOC_8fba9abd,-23.569501190631904,-46.559348296165666,2,3005.36,3866.68,Casal,3,3,4,DP_e3b3e572,-23.56900733739578,-46.57788991054601,1.89,9,7,9,5
LOC_9cf5203c,-23.650140169380446,-46.72165578017305,3,658.56,784.85,Família com Crianças,5,9,10,DP_92787c0a,-23.63476440130138,-46.71492660975597,1.84,3,10,2,7
LOC_88c03108,-23.41455140184907,-46.799354773670395,1,764.85,500.0,Casal,2,4,1,DP_5efad43c,-23.449178349861636,-46.78862134213231,4.0,4,10,5,8
LOC_51047b4d,-23.58929077251862,-46.50626045421927,3,581.12,5004.13,Família com Crianças,7,10,3,DP_d8b2af58,-23.60816697866152,-46.539444179453824,3.97,7,4,3,6
LOC_51470127,-23.485452461603725,-46.6715513912764,3,952.86,4142.16,Família com Crianças,5,7,5,DP_e85b803d,-23.476551386484136,-46.672197503533354,0.99,9,3,4,7
LOC_5b2d7455,-23.58069414066036,-46.585155112314965,2,1945.45,5746.6,Adulto Sozinho,2,1,3,DP_a6e04c58,-23.580882963693625,-46.597846107643335,1.29,5,10,5,7
LOC_930f3ae4,-23.556654199381637,-46.6922096655494,2,10102.86,2128.27,Casal,3,2,2,DP_5af9beb7,-23.54347991050569,-46.675420925446126,2.25,9,8,9,10
LOC_9034e65b,-23.610443582805235,-46.54818493724593,2,2599.36,2374.43,Adulto Sozinho,3,3,2,DP_d8b2af58,-23.60816697866152,-46.539444179453824,0.92,7,4,3,8
LOC_d6df81f3,-23.468080310361614,-46.696593816918224,2,728.11,1786.61,Adulto Sozinho,1,3,4,DP_e85b803d,-23.476551386484136,-46.672197503533354,2.66,9,3,4,6
LOC_f60ba1cc,-23.518316684380355,-46.60491710401449,3,1054.27,2597.7,Casal,4,1,3,DP_016f9fd0,-23.497880501976127,-46.591292407219186,2.66,3,6,1,7
LOC_afc7f06d,-23.63361364158903,-46.63553428754751,2,838.23,2476.98,Família com Crianças,6,6,6,DP_00670d2b,-23.64530423036534,-46.632571571084796,1.33,1,9,1,10
LOC_672ec381,-23.49151388134278,-46.58244141014011,2,472.25,5578.28,Família com Crianças,4,7,1,DP_016f9fd0,-23.497880501976127,-46.591292407219186,1.15,3,6,1,8
LOC_2562164b,-23.574761080073007,-46.685390430154904,2,2820.25,4007.63,Família com Crianças,4,6,1,DP_2292002c,-23.580491623989225,-46.69087774938304,0.85,8,1,6,7
LOC_3eaee53a,-23.54132918418151,-46.56243214624949,3,505.37,4438.45,Família com Crianças,5,8,4,DP_d8734910,-23.547536481487874,-46.56496540563815,0.74,4,8,6,7
LOC_f562c968,-23.617941033561667,-46.667990197511955,1,2646.93,828.51,Família com Crianças,5,5,6,DP_4247720d,-23.608981039033157,-46.663362307985544,1.1,8,9,4,9
LOC_f9b47301,-23.461167358989893,-46.678367373058975,4,866.62,2998.73,Adulto Sozinho,6,7,7,DP_e85b803d,-23.476551386484136,-46.672197503533354,1.82,9,3,4,7
LOC_551f0ce8,-23.561004351413647,-46.71199629614783,3,1178.95,738.71,Família com Crianças,5,5,6,DP_2292002c,-23.580491623989225,-46.69087774938304,3.05,8,1,6,4
LOC_ceb9ea11,-23.41094756020848,-46.611968028842966,4,1157.05,2206.65,Adulto Sozinho,5,3,9,DP_9d82889e,-23.412487099186073,-46.61579868604996,0.43,9,2,8,8
LOC_6602b86f,-23.540833080935265,-46.582473213625754,2,1984.29,3189.46,Família com Crianças,3,4,2,DP_ea4ff28e,-23.539984614076108,-46.58729301667153,0.5,10,7,5,7
LOC_751af6a1,-23.574098449266096,-46.695833673917406,1,233.86,1563.77,Casal,6,1,2,DP_2292002c,-23.580491623989225,-46.69087774938304,0.87,8,1,6,8
LOC_4e27e25e,-23.586141410162824,-46.55153138501834,3,2646.71,1038.51,Adulto Sozinho,3,3,5,DP_d8b2af58,-23.60816697866152,-46.539444179453824,2.74,7,4,3,3
LOC_bcf20a11,-23.468192564031852,-46.7285791988999,1,407.29,2827.27,Casal,3,3,1,DP_0ebff7ba,-23.483499439277384,-46.71833794171456,1.99,10,7,8,7
LOC_29642079,-23.47107512530969,-46.73146693009739,4,585.98,2485.71,Família com Crianças,7,5,8,DP_0ebff7ba,-23.483499439277384,-46.71833794171456,1.92,10,7,8,2
LOC_b91e2b09,-23.539549639529035,-46.51829949272216,3,1446.01,1440.17,Casal,6,5,6,DP_bee23920,-23.5371057126562,-46.509873617866766,0.9,8,3,10,6
LOC_12d45377,-23.60250553445294,-46.77498599017137,1,466.13,500.0,Idosos,3,1,7,DP_343959a8,-23.582683765439054,-46.76817242326442,2.31,3,9,2,8
LOC_d061c0d8,-23.46663870197766,-46.55264758537171,3,740.51,1347.5,Casal,6,3,7,DP_1e5bc3a8,-23.47862762750177,-46.54295633645559,1.66,8,6,4,6
LOC_814cd0ef,-23.658275709942572,-46.54489484389398,2,9491.33,3556.71,Família com Crianças,5,4,6,DP_e82396bc,-23.654765833563626,-46.547771504507246,0.49,2,7,8,9
LOC_a6a25e0c,-23.6372115157466,-46.753825572408736,2,772.66,2174.06,Casal,3,6,4,DP_92787c0a,-23.63476440130138,-46.71492660975597,3.96,3,10,2,7
LOC_2b4dcf68,-23.446290223699606,-46.64638953230046,3,1861.43,777.07,Adulto Sozinho,6,6,7,DP_95a74d50,-23.452744487818617,-46.638285576622025,1.09,3,3,8,7
LOC_ae9f085e,-23.6425043004646,-46.739843438343385,2,633.72,1885.43,Casal,3,3,4,DP_92787c0a,-23.63476440130138,-46.71492660975597,2.68,3,10,2,10
LOC_bfe448d8,-23.50669608332122,-46.71334232908826,2,1614.79,1648.26,Família com Crianças,5,1,6,DP_0ebff7ba,-23.483499439277384,-46.71833794171456,2.62,10,7,8,7
LOC_93b8a1a7,-23.414324815174922,-46.76573505309002,2,1828.39,2678.29,Casal,3,1,2,DP_5efad43c,-23.449178349861636,-46.78862134213231,4.52,4,10,5,6
LOC_de1695fb,-23.531157821376215,-46.55425318704812,4,412.49,3608.76,Família com Crianças,8,10,8,DP_d8734910,-23.547536481487874,-46.56496540563815,2.12,4,8,6,6
LOC_35dcfa93,-23.673538931421525,-46.798190808975676,1,214.55,500.0,Família com Crianças,3,1,2,DP_3fa9402c,-23.643582018815305,-46.79543261504149,3.34,7,5,6,7
LOC_0d135c89,-23.40142097482722,-46.66314921597311,3,862.88,1078.72,Casal,5,5,7,DP_f793fdd2,-23.431616529114766,-46.66263748164485,3.35,6,7,7,5
LOC_da092f30,-23.638609533247767,-46.68501228548354,3,506.1,7616.45,Adulto Sozinho,5,5,7,DP_d3d78729,-23.622196965111417,-46.67848120761651,1.94,2,3,6,6
LOC_0ab04bc1,-23.630436111681753,-46.54644747378727,3,130.33,1473.79,Casal,3,6,3,DP_9143fac9,-23.62815516127242,-46.542894181220035,0.44,4,4,5,6
LOC_ace3e208,-23.576320956396774,-46.597104065503885,2,1638.59,1624.78,Idosos,3,1,4,DP_a6e04c58,-23.580882963693625,-46.597846107643335,0.51,5,10,5,5
LOC_d258369c,-23.65761254894397,-46.6281970226722,1,4389.97,3378.22,Adulto Sozinho,5,1,1,DP_00670d2b,-23.64530423036534,-46.632571571084796,1.44,1,9,1,9
LOC_6e881038,-23.553450106599243,-46.730438453030814,2,3203.05,1745.85,Família com Crianças,4,5,3,DP_eeaf801e,-23.531213276674276,-46.71786423760367,2.78,7,3,5,7
LOC_54cd3cc9,-23.4647604656987,-46.5566488576491,4,3509.98,2231.61,Adulto Sozinho,6,5,5,DP_1e5bc3a8,-23.47862762750177,-46.54295633645559,2.08,8,6,4,5
LOC_d7c7a755,-23.588917359938076,-46.67737225116338,2,1036.22,3255.86,Família com Crianças,4,8,4,DP_2292002c,-23.580491623989225,-46.69087774938304,1.66,8,1,6,7
LOC_070be34a,-23.679469738364055,-46.77484667699855,1,5458.86,4432.11,Casal,2,1,6,DP_3fa9402c,-23.643582018815305,-46.79543261504149,4.5,7,5,6,9
LOC_fdafb228,-23.59586623497265,-46.76365396218834,2,553.69,500.0,Adulto Sozinho,6,3,1,DP_343959a8,-23.582683765439054,-46.76817242326442,1.53,3,9,2,8
LOC_29cee7ce,-23.654972475071048,-46.653206734880804,2,574.29,610.02,Família com Crianças,5,7,2,DP_00670d2b,-23.64530423036534,-46.632571571084796,2.36,1,9,1,9
LOC_b1fc2436,-23.486656088755257,-46.52451034982455,3,3128.98,7821.33,Família com Crianças,6,9,2,DP_c17028c9,-23.490063501878993,-46.544020802933176,2.02,3,5,6,10
LOC_d3ed3fef,-23.46356849814125,-46.50760836683709,4,2490.04,2715.59,Família com Crianças,6,7,10,DP_1e5bc3a8,-23.47862762750177,-46.54295633645559,3.97,8,6,4,6
LOC_83bc1cfb,-23.5023948354202,-46.5607512241817,3,705.01,3253.02,Família com Crianças,6,6,5,DP_c17028c9,-23.490063501878993,-46.544020802933176,2.18,3,5,6,5
LOC_a9a6d968,-23.502356501343666,-46.72931901684178,3,1476.23,1362.21,Idosos,5,3,6,DP_a54904ce,-23.51353339304898,-46.74593307234313,2.1,5,2,8,8
LOC_f55afc77,-23.685148855948633,-46.57623418086684,2,988.41,3773.68,Família com Crianças,4,4,4,DP_3b1ed2d1,-23.692287237134426,-46.599988112303,2.54,2,7,3,6
LOC_8a4bb206,-23.47672062007834,-46.53583751998533,4,444.14,1661.86,Casal,8,6,6,DP_1e5bc3a8,-23.47862762750177,-46.54295633645559,0.76,8,6,4,6
LOC_9f44c6db,-23.4736005395935,-46.5455542625064,3,316.1,2503.49,Família com Crianças,6,7,9,DP_1e5bc3a8,-23.47862762750177,-46.54295633645559,0.62,8,6,4,6
LOC_b52aeae5,-23.452650981597596,-46.63586947394828,3,1283.92,3806.83,Casal,7,7,2,DP_95a74d50,-23.452744487818617,-46.638285576622025,0.25,3,3,8,6
LOC_df29d84d,-23.563613928962067,-46.54164996070184,3,1962.39,2099.39,Casal,5,2,5,DP_d8734910,-23.547536481487874,-46.56496540563815,2.97,4,8,6,4
LOC_f8812806,-23.55042486312816,-46.53664003134757,3,2849.26,3782.14,Adulto Sozinho,7,5,2,DP_d8734910,-23.547536481487874,-46.56496540563815,2.9,4,8,6,6
LOC_8d7bb1a7,-23.560177978314545,-46.52187871971962,3,4831.3,5024.98,Adulto Sozinho,7,4,6,DP_bee23920,-23.5371057126562,-46.509873617866766,2.84,8,3,10,4
LOC_b3194e5d,-23.635475678224104,-46.553549880210625,2,279.27,1286.88,Família com Crianças,5,5,3,DP_10a1b32b,-23.62839796787828,-46.56361465380137,1.29,2,7,1,9
LOC_2af563aa,-23.4534566786434,-46.5150491153171,4,2725.72,3271.7,Casal,8,6,3,DP_1e5bc3a8,-23.47862762750177,-46.54295633645559,3.99,8,6,4,8
LOC_c407b5b5,-23.586461208553114,-46.6792605487119,2,796.16,3801.55,Adulto Sozinho,3,1,5,DP_2292002c,-23.580491623989225,-46.69087774938304,1.35,8,1,6,5
LOC_13b5f55c,-23.607848087792913,-46.78846416893074,1,940.83,1312.26,Família com Crianças,2,5,1,DP_07311449,-23.630234365078177,-46.79922003486498,2.71,1,4,9,5
LOC_d78c6846,-23.597136009659497,-46.70488820630896,3,2175.52,7196.75,Idosos,7,2,2,DP_105d35a6,-23.603584515220458,-46.70223643187409,0.76,8,9,4,6
LOC_d39971b2,-23.574643704652182,-46.61500166041918,3,2675.87,1796.35,Família com Crianças,6,3,6,DP_0fbca58c,-23.56222740269425,-46.613792866281635,1.38,3,3,7,5
LOC_aacc7152,-23.676590704624946,-46.742801754217425,1,2406.66,500.0,Família com Crianças,6,6,3,DP_92787c0a,-23.63476440130138,-46.71492660975597,5.44,3,10,2,5
LOC_6a756861,-23.54053381802191,-46.67041249583121,3,3732.78,2460.87,Família com Crianças,6,7,7,DP_5af9beb7,-23.54347991050569,-46.675420925446126,0.61,9,8,9,5
LOC_983b5d35,-23.587840970433206,-46.63026606211217,3,7909.45,1300.31,Adulto Sozinho,6,4,2,DP_a00fb47c,-23.562621931093844,-46.63620259607727,2.86,4,10,2,5
LOC_d9c68b98,-23.497272736524277,-46.64918245893867,2,691.26,2643.4,Idosos,3,3,3,DP_2797e0bd,-23.51956257185729,-46.63257593664645,3.0,2,4,3,6
LOC_f62c15e2,-23.627996009983537,-46.65724495208873,1,1321.52,1285.62,Idosos,3,2,2,DP_4247720d,-23.608981039033157,-46.663362307985544,2.2,8,9,4,6
LOC_9321e67d,-23.646243335240314,-46.70051370454243,1,1602.67,500.0,Família com Crianças,2,4,5,DP_92787c0a,-23.63476440130138,-46.71492660975597,1.94,3,10,2,9
LOC_797a73ed,-23.486292733951213,-46.603805217769136,2,1167.11,2074.84,Adulto Sozinho,5,5,4,DP_016f9fd0,-23.497880501976127,-46.591292407219186,1.81,3,6,1,7
LOC_e9b78f17,-23.666078501373345,-46.557823397473626,2,505.65,1957.52,Casal,1,4,1,DP_e82396bc,-23.654765833563626,-46.547771504507246,1.62,2,7,8,7
LOC_dd49a76d,-23.584074479719646,-46.71724910715397,1,1041.44,500.0,Casal,3,1,1,DP_105d35a6,-23.603584515220458,-46.70223643187409,2.65,8,9,4,10
LOC_c48a80c8,-23.474434979344952,-46.55964008084582,3,599.13,3652.86,Casal,5,6,4,DP_1e5bc3a8,-23.47862762750177,-46.54295633645559,1.76,8,6,4,6
LOC_106aeda4,-23.6195781281452,-46.73994746707881,2,866.67,773.78,Casal,4,4,3,DP_92787c0a,-23.63476440130138,-46.71492660975597,3.05,3,10,2,7
LOC_1141390c,-23.55805630229216,-46.526864585647544,4,2398.45,1890.11,Idosos,9,6,7,DP_bee23920,-23.5371057126562,-46.509873617866766,2.9,8,3,10,4
LOC_378bca2f,-23.598052485453135,-46.64988264038592,3,9234.74,1420.77,Casal,6,3,7,DP_4247720d,-23.608981039033157,-46.663362307985544,1.83,8,9,4,7
LOC_f7fd8aad,-23.439939876642285,-46.699365431559215,4,869.24,3908.47,Casal,9,6,3,DP_3a71bf58,-23.43519692543406,-46.70158743862493,0.57,7,7,10,6
LOC_9ed4f9c2,-23.401017507253435,-46.7288156735533,1,933.41,500.0,Casal,3,3,2,DP_3a71bf58,-23.43519692543406,-46.70158743862493,4.7,7,7,10,7
LOC_5dd0e5c0,-23.480409456113673,-46.693183444186914,4,1004.65,4735.48,Casal,7,4,6,DP_e85b803d,-23.476551386484136,-46.672197503533354,2.18,9,3,4,5
LOC_5fec36b8,-23.44366641734542,-46.6187738612313,3,2768.36,843.93,Casal,4,4,3,DP_95a74d50,-23.452744487818617,-46.638285576622025,2.23,3,3,8,7
LOC_c3ef9d05,-23.480596914929887,-46.683903664108605,4,1476.36,4061.92,Família com Crianças,8,9,7,DP_e85b803d,-23.476551386484136,-46.672197503533354,1.27,9,3,4,7
LOC_0e8c8e69,-23.63284692634888,-46.58801939026637,2,780.04,7353.45,Adulto Sozinho,7,5,1,DP_10a1b32b,-23.62839796787828,-46.56361465380137,2.53,2,7,1,7
LOC_0b2c7aad,-23.47816221989405,-46.79486457567147,1,874.81,500.0,Adulto Sozinho,3,1,1,DP_5efad43c,-23.449178349861636,-46.78862134213231,3.28,4,10,5,9
LOC_01720b67,-23.65859980750786,-46.73938094563927,2,611.56,1612.51,Família com Crianças,3,8,8,DP_92787c0a,-23.63476440130138,-46.71492660975597,3.63,3,10,2,7
LOC_f38aaa15,-23.564899069785746,-46.6991061446488,3,4110.9,3049.47,Casal,4,1,4,DP_2292002c,-23.580491623989225,-46.69087774938304,1.92,8,1,6,4
LOC_d8197b3e,-23.603950517486705,-46.575815532018346,2,2658.55,2940.37,Família com Crianças,6,7,2,DP_10a1b32b,-23.62839796787828,-46.56361465380137,2.98,2,7,1,8
LOC_4c70fe20,-23.526916790045235,-46.6790385990664,2,184.17,970.0,Casal,4,1,4,DP_5af9beb7,-23.54347991050569,-46.675420925446126,1.88,9,8,9,8
LOC_0476d2ea,-23.460256861466437,-46.51544430855036,4,1567.73,5132.54,Família com Crianças,6,3,6,DP_1e5bc3a8,-23.47862762750177,-46.54295633645559,3.46,8,6,4,4
LOC_6066ab98,-23.439173891465213,-46.54335043578164,4,2097.47,8784.21,Família com Crianças,6,8,6,DP_add8a21a,-23.445722312961912,-46.579277303118424,3.73,3,6,10,4
LOC_21cd9015,-23.65939251325619,-46.78738565560941,1,902.91,675.38,Casal,3,1,1,DP_3fa9402c,-23.643582018815305,-46.79543261504149,1.94,7,5,6,7
LOC_00446770,-23.699524561194842,-46.6787503862224,2,906.0,3557.09,Casal,7,4,5,DP_9fb30649,-23.683465897524272,-46.60587669044847,7.62,2,4,2,5
LOC_79b454e5,-23.617006141532382,-46.69088672240537,3,1856.81,1153.71,Família com Crianças,7,6,6,DP_d3d78729,-23.622196965111417,-46.67848120761651,1.39,2,3,6,6
LOC_6c6f0f4b,-23.615247614439653,-46.72696696734944,2,3005.28,2378.08,Casal,3,4,4,DP_92787c0a,-23.63476440130138,-46.71492660975597,2.49,3,10,2,9
LOC_03c41f2b,-23.479458576284664,-46.75904610774484,4,3483.63,4925.02,Família com Crianças,7,7,9,DP_803fe971,-23.482326056051757,-46.76214704832643,0.45,10,1,1,6
LOC_9cae9684,-23.46608442197314,-46.600334495103084,2,4228.11,3816.13,Casal,4,4,4,DP_add8a21a,-23.445722312961912,-46.579277303118424,3.12,3,6,10,6
LOC_969d2197,-23.4218892363644,-46.76014487757783,3,214.76,1145.36,Casal,6,3,4,DP_5efad43c,-23.449178349861636,-46.78862134213231,4.19,4,10,5,4
LOC_fac69871,-23.474497908948294,-46.642002924420936,3,1465.52,2453.72,Família com Crianças,3,6,6,DP_95a74d50,-23.452744487818617,-46.638285576622025,2.44,3,3,8,5
LOC_b5378242,-23.513716775814036,-46.56023244299034,3,320.61,2313.91,Família com Crianças,5,3,8,DP_c17028c9,-23.490063501878993,-46.544020802933176,3.1,3,5,6,8
LOC_5393ee3c,-23.436176192560307,-46.705915952158215,3,1782.54,1611.75,Família com Crianças,6,3,8,DP_3a71bf58,-23.43519692543406,-46.70158743862493,0.45,7,7,10,7
LOC_31a7d962,-23.40350402795552,-46.796182685364805,2,1563.71,1704.07,Casal,6,5,4,DP_5efad43c,-23.449178349861636,-46.78862134213231,5.13,4,10,5,5
LOC_b5d9d6e5,-23.48185902759392,-46.542998073453276,2,327.51,4355.55,Família com Crianças,7,6,4,DP_1e5bc3a8,-23.47862762750177,-46.54295633645559,0.36,8,6,4,8
LOC_56a40f48,-23.484574677035475,-46.50447595808645,4,4089.12,3379.9,Adulto Sozinho,9,6,8,DP_bf7dae2b,-23.511500995954705,-46.5273576580429,3.79,1,10,9,2
LOC_4d00421c,-23.516721942948667,-46.539449305085064,3,1876.07,3227.9,Idosos,7,4,4,DP_bf7dae2b,-23.511500995954705,-46.5273576580429,1.36,1,10,9,6
LOC_b9bcb56d,-23.538385793280916,-46.656327016296714,2,661.19,12247.36,Casal,3,3,3,DP_c3143460,-23.536034150499972,-46.66301473004276,0.73,9,1,7,9
LOC_45fbeb71,-23.420549726090794,-46.553585453393374,2,1389.02,6710.4,Casal,5,1,1,DP_add8a21a,-23.445722312961912,-46.579277303118424,3.83,3,6,10,7
LOC_d6d35187,-23.441080086139575,-46.75510972630153,1,906.77,500.0,Adulto Sozinho,5,4,1,DP_5efad43c,-23.449178349861636,-46.78862134213231,3.53,4,10,5,8
LOC_bbb4e727,-23.561443027564337,-46.62432303891861,4,861.05,1484.57,Idosos,5,6,7,DP_212e2a78,-23.559714587099716,-46.618339810731236,0.64,5,9,10,5
LOC_7dc5836f,-23.5839959542656,-46.53705953366108,4,2723.88,4426.01,Família com Crianças,8,6,3,DP_d8b2af58,-23.60816697866152,-46.539444179453824,2.69,7,4,3,5
LOC_fa050144,-23.4519226599714,-46.587458607830584,4,2252.57,3359.23,Casal,6,5,4,DP_add8a21a,-23.445722312961912,-46.579277303118424,1.08,3,6,10,4
LOC_ec1a7e35,-23.471405623768984,-46.508086755203976,4,1188.67,893.05,Adulto Sozinho,8,4,6,DP_1e5bc3a8,-23.47862762750177,-46.54295633645559,3.64,8,6,4,4
LOC_4fe563a3,-23.520354339786643,-46.56788685793534,3,2504.88,3543.29,Casal,6,7,2,DP_ea4ff28e,-23.539984614076108,-46.58729301667153,2.94,10,7,5,6
LOC_d24ac9f5,-23.691842240602973,-46.60891330248163,2,423.25,1794.74,Casal,3,6,4,DP_3b1ed2d1,-23.692287237134426,-46.599988112303,0.91,2,7,3,7
LOC_4bdbdbed,-23.555203266057028,-46.68314549592387,3,373.22,1987.25,Família com Crianças,5,3,3,DP_5af9beb7,-23.54347991050569,-46.675420925446126,1.52,9,8,9,7
LOC_1eb1136b,-23.486225604868054,-46.74765480993756,2,281.96,1986.9,Adulto Sozinho,4,6,3,DP_803fe971,-23.482326056051757,-46.76214704832643,1.54,10,1,1,7
LOC_1328cf38,-23.630829296049246,-46.65338028602005,3,569.99,2519.74,Adulto Sozinho,5,5,9,DP_4247720d,-23.608981039033157,-46.663362307985544,2.63,8,9,4,5
LOC_76acb80c,-23.653178090206023,-46.67052557973258,2,170.85,3855.95,Família com Crianças,4,4,7,DP_d3d78729,-23.622196965111417,-46.67848120761651,3.53,2,3,6,7
LOC_049895b6,-23.606661024079916,-46.6472884293704,2,561.68,2469.31,Família com Crianças,5,4,4,DP_4247720d,-23.608981039033157,-46.663362307985544,1.66,8,9,4,5
LOC_2db577c9,-23.44465845608259,-46.69604591445699,3,1645.74,5417.08,Casal,7,4,6,DP_3a71bf58,-23.43519692543406,-46.70158743862493,1.19,7,7,10,6
LOC_23bb147e,-23.57075940807693,-46.508795340120464,4,1754.78,4897.58,Idosos,8,6,9,DP_bee23920,-23.5371057126562,-46.509873617866766,3.74,8,3,10,1
LOC_8d16d53b,-23.60919819547892,-46.50046273042442,4,2864.63,2681.94,Família com Crianças,10,9,8,DP_d8b2af58,-23.60816697866152,-46.539444179453824,3.97,7,4,3,2
LOC_f99b09d9,-23.61829141080667,-46.649840602103666,1,518.26,1683.44,Família com Crianças,1,4,4,DP_4247720d,-23.608981039033157,-46.663362307985544,1.72,8,9,4,7
LOC_243bceeb,-23.487243175777564,-46.756970850938295,2,633.23,2882.88,Idosos,2,4,3,DP_803fe971,-23.482326056051757,-46.76214704832643,0.76,10,1,1,10
LOC_45f3150d,-23.414005083741998,-46.61957716657277,4,773.79,2095.42,Família com Crianças,9,9,9,DP_9d82889e,-23.412487099186073,-46.61579868604996,0.42,9,2,8,4
LOC_cbce34a2,-23.465797697618786,-46.72535701712777,2,729.13,3265.9,Família com Crianças,3,7,5,DP_0ebff7ba,-23.483499439277384,-46.71833794171456,2.09,10,7,8,6
LOC_03da1dcf,-23.603021710542315,-46.636419594103295,2,1158.45,3411.33,Adulto Sozinho,2,1,4,DP_4247720d,-23.608981039033157,-46.663362307985544,2.82,8,9,4,5
LOC_6853e3e0,-23.47810561484504,-46.63385339535497,2,613.33,2374.25,Família com Crianças,5,8,4,DP_95a74d50,-23.452744487818617,-46.638285576622025,2.85,3,3,8,7
LOC_eafda2eb,-23.42946740994006,-46.70279766502191,4,303.91,3588.06,Família com Crianças,7,7,6,DP_3a71bf58,-23.43519692543406,-46.70158743862493,0.65,7,7,10,3
LOC_4c4924da,-23.674669227171062,-46.574601048435674,3,1177.5,2535.1,Adulto Sozinho,4,2,4,DP_3b1ed2d1,-23.692287237134426,-46.599988112303,3.24,2,7,3,4
LOC_84d140bb,-23.41734247587817,-46.747087067012956,3,898.95,2303.64,Família com Crianças,7,3,3,DP_3a71bf58,-23.43519692543406,-46.70158743862493,5.04,7,7,10,7
LOC_d7c5e2b9,-23.492909162081805,-46.66199410719292,3,318.66,3672.5,Casal,6,6,6,DP_e85b803d,-23.476551386484136,-46.672197503533354,2.09,9,3,4,5
LOC_23be7bdd,-23.58154987903513,-46.64254022254901,2,981.75,3165.49,Família com Crianças,6,5,3,DP_a00fb47c,-23.562621931093844,-46.63620259607727,2.2,4,10,2,6
LOC_5a757ca7,-23.449435643881554,-46.79217379441278,3,432.39,783.99,Família com Crianças,5,7,5,DP_5efad43c,-23.449178349861636,-46.78862134213231,0.36,4,10,5,9
LOC_c881e4a2,-23.648758157883073,-46.77537291512898,1,291.76,500.0,Casal,3,2,3,DP_3fa9402c,-23.643582018815305,-46.79543261504149,2.12,7,5,6,8
LOC_fed1e832,-23.546914693861936,-46.666128211458485,3,331.21,1457.02,Casal,4,4,1,DP_5af9beb7,-23.54347991050569,-46.675420925446126,1.02,9,8,9,7
LOC_00e42133,-23.469288071650855,-46.548287361329955,4,600.65,3589.9,Família com Crianças,6,10,8,DP_1e5bc3a8,-23.47862762750177,-46.54295633645559,1.17,8,6,4,7
LOC_332ec520,-23.475362196049606,-46.771668739383294,2,366.13,4284.95,Casal,3,3,5,DP_803fe971,-23.482326056051757,-46.76214704832643,1.24,10,1,1,7
LOC_16bab89a,-23.53338838340886,-46.55587051299383,4,2098.78,2013.72,Família com Crianças,7,10,8,DP_d8734910,-23.547536481487874,-46.56496540563815,1.82,4,8,6,6
LOC_f5d9e0e1,-23.50508646131241,-46.78688109083871,3,231.48,1421.73,Adulto Sozinho,2,8,4,DP_278ff609,-23.520351156484153,-46.78442654717463,1.71,2,4,1,5
LOC_6f4aa7d8,-23.514343591431864,-46.67192637247583,4,789.69,2192.71,Casal,9,7,10,DP_b94f8228,-23.501066491511626,-46.685593555369756,2.03,1,5,9,7
LOC_29043716,-23.45646997467641,-46.53944052915033,4,307.03,2745.16,Casal,7,8,7,DP_1e5bc3a8,-23.47862762750177,-46.54295633645559,2.49,8,6,4,3
LOC_983a77d7,-23.631224818075875,-46.782662563016075,1,714.78,2156.66,Família com Crianças,4,1,4,DP_07311449,-23.630234365078177,-46.79922003486498,1.69,1,4,9,8
LOC_5a9515be,-23.474790730009243,-46.64249234565386,3,3193.58,4632.35,Casal,5,6,4,DP_95a74d50,-23.452744487818617,-46.638285576622025,2.48,3,3,8,10
LOC_ae3f639c,-23.514187438998697,-46.56751316130294,4,1450.62,1711.08,Adulto Sozinho,8,6,3,DP_016f9fd0,-23.497880501976127,-46.591292407219186,3.02,3,6,1,5
LOC_f1f2f2c5,-23.4943967005639,-46.65273343489419,3,454.93,4475.24,Família com Crianças,6,9,8,DP_e85b803d,-23.476551386484136,-46.672197503533354,2.8,9,3,4,5
LOC_122b2d9f,-23.492581942863477,-46.57325838705697,2,727.69,3019.48,Família com Crianças,6,3,2,DP_016f9fd0,-23.497880501976127,-46.591292407219186,1.93,3,6,1,6
LOC_a60068f3,-23.545880345087486,-46.660446593237914,1,1031.18,3077.32,Casal,4,2,2,DP_d3e22f02,-23.55225828470366,-46.653110209687966,1.03,4,6,5,7
LOC_1541c25d,-23.691719092013525,-46.62359445075604,2,316.35,1196.64,Família com Crianças,4,8,2,DP_9fb30649,-23.683465897524272,-46.60587669044847,2.02,2,4,2,8
LOC_41802ee3,-23.42106219896815,-46.746247947423065,1,663.13,1365.56,Família com Crianças,6,4,1,DP_3a71bf58,-23.43519692543406,-46.70158743862493,4.81,7,7,10,7
LOC_300f7d9b,-23.603032109347367,-46.76319617411669,3,1532.76,1549.17,Casal,3,6,4,DP_343959a8,-23.582683765439054,-46.76817242326442,2.31,3,9,2,5
LOC_f0bc9125,-23.422079450102498,-46.63439273348884,3,2029.78,514.68,Idosos,6,6,2,DP_9d82889e,-23.412487099186073,-46.61579868604996,2.17,9,2,8,6
LOC_7b72f78b,-23.63879841531833,-46.59407406574335,2,1581.25,4086.05,Casal,6,5,5,DP_10a1b32b,-23.62839796787828,-46.56361465380137,3.31,2,7,1,4
LOC_15aed5a2,-23.64171046909251,-46.56797013586693,1,644.63,791.41,Família com Crianças,2,2,4,DP_10a1b32b,-23.62839796787828,-46.56361465380137,1.54,2,7,1,9
LOC_9577c2ff,-23.548362245996824,-46.64674735145344,3,2419.43,4259.83,Casal,4,6,4,DP_d3e22f02,-23.55225828470366,-46.653110209687966,0.78,4,6,5,5
LOC_6afc12ff,-23.487002601242352,-46.61932290306585,2,745.69,9385.79,Adulto Sozinho,4,2,4,DP_016f9fd0,-23.497880501976127,-46.591292407219186,3.1,3,6,1,4
LOC_e78fa037,-23.642459567228567,-46.575741717794585,2,1438.89,1171.76,Casal,4,5,5,DP_10a1b32b,-23.62839796787828,-46.56361465380137,1.99,2,7,1,7
LOC_7029faa5,-23.555788121689616,-46.71064490869097,3,5308.77,6694.46,Família com Crianças,5,10,8,DP_eeaf801e,-23.531213276674276,-46.71786423760367,2.83,7,3,5,6
LOC_8d704549,-23.605149206057067,-46.5101620563325,2,636.43,5816.63,Idosos,4,3,1,DP_d8b2af58,-23.60816697866152,-46.539444179453824,3.0,7,4,3,6
LOC_2e90bac5,-23.555846536892965,-46.592913397926935,2,804.11,3386.89,Família com Crianças,5,4,9,DP_681b33b5,-23.563742760790948,-46.59742241854985,0.99,10,10,9,9
LOC_3c9ae48b,-23.577736651058192,-46.616503640048386,3,423.94,3842.14,Família com Crianças,6,6,5,DP_0fbca58c,-23.56222740269425,-46.613792866281635,1.74,3,3,7,5
LOC_73f95d77,-23.666487530771978,-46.68744164631098,3,543.78,5868.03,Família com Crianças,6,9,4,DP_92787c0a,-23.63476440130138,-46.71492660975597,4.5,3,10,2,2
LOC_ff531507,-23.463005193334453,-46.66287966355801,4,1073.81,3338.24,Adulto Sozinho,7,7,10,DP_e85b803d,-23.476551386484136,-46.672197503533354,1.78,9,3,4,5
LOC_d0c25257,-23.518348705810972,-46.70069690019753,4,1090.15,1243.4,Adulto Sozinho,7,8,8,DP_eeaf801e,-23.531213276674276,-46.71786423760367,2.26,7,3,5,4
LOC_9f1b33cb,-23.433911061190237,-46.52465204885608,4,892.42,2810.89,Adulto Sozinho,7,2,7,DP_f1441d18,-23.41135547459535,-46.51544828235832,2.67,7,1,9,4
LOC_f41c2c40,-23.574401060244746,-46.54657175003312,2,1254.19,500.0,Família com Crianças,5,6,6,DP_e3b3e572,-23.56900733739578,-46.57788991054601,3.24,9,7,9,6
LOC_302770b0,-23.408748912700855,-46.67078729626745,3,385.53,4388.31,Casal,7,7,5,DP_f793fdd2,-23.431616529114766,-46.66263748164485,2.67,6,7,7,5
LOC_ed97acd5,-23.66087752552689,-46.66033023517841,1,1675.49,500.0,Adulto Sozinho,3,3,4,DP_00670d2b,-23.64530423036534,-46.632571571084796,3.31,1,9,1,5
LOC_cbdedcf1,-23.643945054296005,-46.53753402258336,4,642.04,4030.3,Família com Crianças,6,5,4,DP_e82396bc,-23.654765833563626,-46.547771504507246,1.59,2,7,8,3
LOC_dfe1d249,-23.62143808752109,-46.774070204459505,3,926.93,3399.05,Família com Crianças,9,4,8,DP_07311449,-23.630234365078177,-46.79922003486498,2.74,1,4,9,4
LOC_75aac287,-23.662105557771643,-46.54831534998216,1,2437.49,2151.84,Casal,1,1,1,DP_e82396bc,-23.654765833563626,-46.547771504507246,0.82,2,7,8,7
LOC_16e975e0,-23.65726139647176,-46.73916053354311,1,933.06,500.0,Família com Crianças,2,3,4,DP_92787c0a,-23.63476440130138,-46.71492660975597,3.51,3,10,2,7
LOC_02bb4269,-23.4301928506054,-46.55132159928598,3,746.14,913.36,Família com Crianças,7,7,8,DP_add8a21a,-23.445722312961912,-46.579277303118424,3.33,3,6,10,6
LOC_eeb1e3c1,-23.52872544761691,-46.70735466542979,2,735.86,653.09,Família com Crianças,5,3,3,DP_eeaf801e,-23.531213276674276,-46.71786423760367,1.1,7,3,5,8
LOC_26ca2ef5,-23.68150622834421,-46.56693814317153,1,976.53,500.0,Família com Crianças,1,5,2,DP_e82396bc,-23.654765833563626,-46.547771504507246,3.55,2,7,8,4
LOC_35600add,-23.593858511939835,-46.535378965968576,2,571.67,1449.28,Família com Crianças,7,8,6,DP_d8b2af58,-23.60816697866152,-46.539444179453824,1.64,7,4,3,7
LOC_2f8f5596,-23.530859303846178,-46.52090533456901,3,5509.93,4083.48,Casal,5,2,1,DP_bee23920,-23.5371057126562,-46.509873617866766,1.32,8,3,10,6
LOC_59ccc196,-23.581235310534545,-46.55531083812166,2,1914.91,1136.05,Família com Crianças,1,6,9,DP_e3b3e572,-23.56900733739578,-46.57788991054601,2.67,9,7,9,8
LOC_58a97ada,-23.6058355654192,-46.5074067694689,3,598.4,1438.12,Idosos,5,8,3,DP_d8b2af58,-23.60816697866152,-46.539444179453824,3.27,7,4,3,6
LOC_ff05a2e9,-23.577434254676227,-46.612355817059345,3,2426.77,1614.67,Casal,7,2,6,DP_a6e04c58,-23.580882963693625,-46.597846107643335,1.52,5,10,5,6
LOC_83b9e5b9,-23.52341844874416,-46.55448123546102,3,2519.95,3732.5,Família com Crianças,5,5,6,DP_d8734910,-23.547536481487874,-46.56496540563815,2.88,4,8,6,7
LOC_a7e464bc,-23.592147807062226,-46.50962217943181,4,1622.75,566.55,Casal,8,7,5,DP_d8b2af58,-23.60816697866152,-46.539444179453824,3.52,7,4,3,4
